Country_Code,Name,Capacity_Mw,Latitude,Longitude
AFG,Kajaki Hydroelectric Power Plant Afghanistan,33.0,32.322,65.119
AFG,Kandahar DOG,10.0,31.67,65.795
AFG,Kandahar JOL,10.0,31.623,65.792
AFG,Mahipar Hydroelectric Power Plant Afghanistan,66.0,34.556,69.4787
AFG,Naghlu Dam Hydroelectric Power Plant Afghanistan,100.0,34.641,69.717
AFG,Nangarhar (Darunta) Hydroelectric Power Plant Afghanistan,11.55,34.4847,70.3633
AFG,Northwest Kabul Power Plant Afghanistan,42.0,34.5638,69.1134
AFG,Pul-e-Khumri Hydroelectric Power Plant Afghanistan,6.0,35.9416,68.71
AFG,Sarobi Dam Hydroelectric Power Plant Afghanistan,22.0,34.5865,69.7757
ALB,Bistrica 1,27.0,39.9116,20.1047
ALB,Fierza,500.0,42.2514,20.0431
ALB,Koman,600.0,42.1033,19.8224
ALB,Lanabregas,5.0,41.3428,19.8964
ALB,Shkopet,24.0,41.6796,19.8305
ALB,Ulez,25.0,41.6796,19.8936
ALB,Vau i Dijes,250.0,42.0137,19.6359
ALB,Vlora,98.0,40.4874,19.434
DZA,Adrar,20.0,27.908,-0.317
DZA,Ain Azel,20.0,35.88,5.475
DZA,Ain Djasser,520.0,35.8665,6.0262
DZA,Ain Sekhouna,20.0,34.532,0.804
DZA,Ain el Ibel I,20.0,34.346,3.164
DZA,Ain el Ibel II,53.0,34.342,3.169
DZA,Ain el Melh,20.0,34.861,4.204
DZA,Algerie Sud-Ouest,43.5,27.908,-0.317
DZA,Annaba,71.0,36.8924,7.7634
DZA,Aoulef,5.0,26.9989,1.3351
DZA,Arbaa,560.0,36.5988,3.1375
DZA,Bir Rebaa,10.0,31.285,8.565
DZA,Boufarik 1,100.0,36.5914,2.9223
DZA,Boufarik 2,450.0,36.596,2.878
DZA,Boutelilis,450.0,35.5658,-0.9386
DZA,Chelghoum El Aïd,15.0,36.225,6.11
DZA,El Kheneg,60.0,33.727,2.811
DZA,F'Krina,292.0,35.7666,7.3619
DZA,HPC Ouargla,30.0,32.602,5.834
DZA,Hadjret Ennous,1200.0,36.5767,2.0797
DZA,Hamma 2,418.0,36.7489,3.0823
DZA,Hassi Messaoud Mobile,72.0,31.6703,6.0531
DZA,Hassi Messoud,600.0,31.6703,6.0531
DZA,Hassi Messoud Nord 2,200.0,31.7877,6.0517
DZA,Hassi Messoud Ouest,492.0,31.8065,5.9924
DZA,Hassi R'mel ISCC,20.0,33.123,3.356
DZA,Hauts Plateaux Centre,106.6,34.342,3.169
DZA,Hauts Plateaux Est,73.8,35.68,5.9861
DZA,Ighil Emda,24.0,36.4739,5.2719
DZA,In Salah,5.0,27.183,2.504
DZA,Jijel,588.0,36.8139,5.876
DZA,Kahrama IPP,345.0,35.8064,-0.2476
DZA,Koudiet Eddraouch,1200.0,36.885,8.0778
DZA,Labiodh Sidi Cheikh,20.0,32.945,0.555
DZA,Labreg,396.0,34.5056,6.9848
DZA,Marsat,840.0,35.8,-0.1924
DZA,Marsat TG,184.0,35.8,-0.1924
DZA,Msila 1,980.0,35.7071,4.4804
DZA,Naâma,19.9,33.274,-0.372
DZA,Oued El Kebrit,15.0,35.919,7.87
DZA,Oued el Ma,20.0,35.68,5.9861
DZA,Ras Djinet,672.0,36.8509,3.6983
DZA,Ras el Oued,20.0,36.01,5.035
DZA,Ravin Blanc,73.0,35.7095,-0.6319
DZA,Reggane,5.0,26.768,0.137
DZA,Relizane,465.0,35.7835,0.5407
DZA,SKB IPP,484.0,36.1399,2.9296
DZA,SKS IPP SNC Lavalin,815.0,36.8789,6.9366
DZA,SPP1 Thermal,150.0,32.9475,3.238
DZA,Skikda,262.0,36.88,6.935
DZA,Tamanrasset,13.0,22.849,5.45
DZA,Terga,1200.0,35.4608,-1.2295
DZA,Tiaret,300.0,35.3396,1.3562
DZA,Tilghemt 1,200.0,33.1319,3.348
DZA,Tilghemt 2,600.0,33.1377,3.3678
DZA,Timimoun,9.0,29.22,0.223
DZA,Tindouf,9.0,27.752,-8.154
DZA,Télagh,12.0,34.692,-0.601
DZA,Zaouiet Kounta,6.0,27.241,-0.174
AGO,Biopio,22.8,-12.4706,13.7319
AGO,Biopio (hydro),14.6,-12.4706,13.7319
AGO,Cambambe,180.0,-9.7523,14.4809
AGO,Capanda,520.0,-9.7955,15.4672
AGO,Cazenga,132.0,-8.8383,13.2344
AGO,Huambo,16.26,-12.76,15.75
AGO,Lobito,20.0,-12.37,13.57
AGO,Luanda Diesel,58.0,-8.8383,13.2344
AGO,Luanda Refinery,18.5,-8.8383,13.2344
AGO,Malongo,10.0,-5.55,12.2
AGO,Matala,40.0,-14.7333,15.0333
AGO,Namibe,11.68,-15.1961,12.1522
AGO,Rio Luachimo,16.0,-7.3,20.85
AGO,Xitoto,11.34,-15.3333,15.0
ATA,McMurdo Station Generator,6.6,-77.847,166.6605
ATA,Ross Island,1.0,-77.8428,166.7271
ARG,AGUA DEL CAJON (AUTOGENERADOR DEL MEM),479.2,-38.9368,-68.3556
ARG,AGUA DEL CAJON (GENERADOR DEL MEM),192.0,-38.9368,-68.3556
ARG,AGUA DEL TORO,130.0,-34.5792,-68.9892
ARG,ALICURA,1050.0,-40.58,-70.7489
ARG,ALMIRANTE BROWN,25.0,-34.8386,-58.4033
ARG,ALTO VALLE,97.5,-38.9524,-68.0218
ARG,ALUMINE,1.904,-39.2145,-70.9157
ARG,ALVAREZ CONDARCO,50.7,-33.0452,-69.0516
ARG,ARROYITO,128.0,-39.1009,-68.5982
ARG,ATUCHA I,370.0,-33.967,-59.2059
ARG,ATUCHA II,745.0,-33.9674,-59.2045
ARG,BANDERA,31.0,-23.8219,-64.7847
ARG,BARILOCHE (PUERTO  MORENO),5.736000000000001,-41.1167,-71.4167
ARG,BENJAMIN REOLIN,38.4,-32.1883,-64.3233
ARG,BERNARDO  DE IRIGOYEN,2.096,-26.2545,-53.6469
ARG,C.T. RUFINO,31.9,-34.2605,-62.7107
ARG,C.T. SAN VICENTE,27.6,-35.0241,-58.4237
ARG,CAA CATI,1.415,-27.7534,-57.6205
ARG,CABRA CORRAL,102.0,-25.2712,-65.3298
ARG,CACHEUTA (NUEVA),120.0,-33.0291,-69.1109
ARG,CACHI,1.07,-25.1089,-66.2106
ARG,CAFAYATE,4.182,-26.0715,-65.9876
ARG,CAPITAL CATAMARCA - PREDIO CHOYA,5.728,-28.4537,-65.7841
ARG,CAPITAL CATAMARCA - PREDIO EX CARCEL,7.075,-28.4773,-65.7872
ARG,CAPITAL CATAMARCA - PREDIO RIPIERA,4.675,-28.4684,-65.7797
ARG,CASA DE PIEDRA,60.0,-38.2143,-67.1908
ARG,CASSAFFOUSTH,17.28,-31.3992,-64.2006
ARG,CENTRAL BAHIA BLANCA (PIEDRA BUENA) SA,620.0,-38.7872,-62.2536
ARG,CENTRAL LOMA DE LA LATA SA,540.0,-38.5127,-68.6048
ARG,CENTRAL PARQUE INDUSTRIAL LA BANDA,11.228,-38.062,-67.9463
ARG,CENTRAL T.GENELBA,673.6,-34.9027,-58.7334
ARG,CENTRAL T.GENELBA PLUS,164.55,-34.9027,-58.7334
ARG,CENTRAL TERMICA BRIGADIER LOPEZ (ENARSA),280.0,-31.7112,-60.7811
ARG,CENTRAL TERMICA DE CICLO COMBINADO SALTA,643.0,-24.7456,-65.0513
ARG,CENTRAL TERMICA GÜEMES SA,361.0,-24.6894,-65.0425
ARG,CENTRAL TERMICA LA BANDA,32.0,-27.7528,-64.2655
ARG,CENTRAL TERMICA PIQUIRENDA SA,30.44,-22.3497,-63.7664
ARG,CENTRAL TERMICA REMEDIOS DE ESCALADA,25.0,-34.7208,-58.3881
ARG,CENTRAL TERMOELECTRICA GUILLERMO BROWN,524.0,-34.6268,-58.5438
ARG,CENTRAL TERMOELECTRICA MANUEL BELGRANO,868.2,-24.6894,-65.0425
ARG,CENTRAL TERMOELECTRICA TIMBUES,865.1400000000001,-32.5778,-60.791
ARG,CH LOS CARACOLES,121.4,-31.5192,-68.9814
ARG,CHILECITO,5.0,-29.1578,-67.5069
ARG,CHIMBERA 1,2.0,-31.9881,-68.5402
ARG,CIPOLLETTI,5.78,-38.9121,-67.9427
ARG,COMANDANTE ANDRESITO,2.372,-25.6669,-54.0419
ARG,COMODORO RIVADAVIA,141.02,-25.9913,-54.6278
ARG,COMODORO RIVADAVIA - ANTONIO MORAN,16.56,-45.8467,-67.4964
ARG,CORRIENTES,1.4,-27.4708,-58.8042
ARG,COSTANERA,1982.2,-34.626,-58.3393
ARG,CRUZ DE PIEDRA,17.94,-33.0349,-68.7971
ARG,CRUZ DEL EJE,5.052,-30.7636,-64.7538
ARG,CT 13 DE JULIO,26.0,-32.1613,-64.1537
ARG,CT ALEM,15.0,-43.0907,-65.2298
ARG,CT ALUMINE,6.3,-38.8706,-70.5753
ARG,CT ARISTOBULO DEL VALLE,15.0,-27.0922,-54.8625
ARG,CT ARRECIFES,20.0,-34.0414,-60.1297
ARG,CT AÑATUYA,19.2,-28.4431,-62.8569
ARG,CT AÑATUYA II,11.5,-28.4431,-62.8569
ARG,CT BARILOCHE,20.0,-41.1497,-71.2633
ARG,CT BELL VILLE,15.62,-32.6103,-62.6864
ARG,CT BRAGADO,49.8,-35.1364,-60.4311
ARG,CT CAPITAN SARMIENTO,5.0,-34.1636,-59.7683
ARG,CT CATAMARCA,19.2,-28.4706,-65.7647
ARG,CT CAVIAHUE,5.0,-38.0528,-70.6136
ARG,CT CERES,18.0,-29.8883,-61.9297
ARG,CT CHARATA,19.4,-27.2369,-61.1939
ARG,CT CHILECITO,10.0,-29.1581,-67.5072
ARG,CT CIPOLLETTI,5.0,-38.9133,-67.9414
ARG,CT COLON BUENOS AIRES,15.3,-33.9222,-61.0769
ARG,CT CONCEPCION DEL URUGUAY,41.78,-32.4767,-58.2672
ARG,CT CORRIENTES,20.0,-27.4708,-58.8042
ARG,CT ECOENERGIA (PETROBRAS),13.2,-38.6871,-62.3961
ARG,CT ENSENADA DE BARRAGAN,567.0,-34.8597,-57.9557
ARG,CT ESQUINA,16.5,-30.055,-59.5294
ARG,CT FORMOSA II,30.0,-26.1764,-58.2094
ARG,CT GENERAL VILLEGAS,23.49,-35.0347,-62.9981
ARG,CT GOYA,13.0,-29.1583,-59.2728
ARG,CT INDEPENDENCIA,120.0,-26.8666,-65.2247
ARG,CT INGENIERO JUAREZ,4.0,-23.9078,-61.8342
ARG,CT INTA CATAMARCA,7.04,-28.4733,-65.7275
ARG,CT ISLA VERDE,24.5,-33.2425,-62.395
ARG,CT JUAN JOSE CASTELLI,15.0,-25.9564,-60.6204
ARG,CT JUNIN,22.0,-34.5708,-60.9161
ARG,CT LA PLATA,40.4,-34.9344,-58.016
ARG,CT LA RIOJA DELIVERY,19.2,-29.3811,-66.8325
ARG,CT LA RIOJA SUR,10.0,-29.3808,-66.8319
ARG,CT LAGUNA BLANCA,7.0,-25.1286,-58.2597
ARG,CT LAS ARMAS,10.4,-37.0781,-57.8181
ARG,CT LAS ARMAS II,23.37,-37.0781,-57.8181
ARG,CT LAS PALMAS,6.0,-27.0289,-58.6997
ARG,CT LIBERTADOR GENERAL SAN MARTIN,15.0,-40.8421,-68.0869
ARG,CT LINCOLN,15.002,-34.8578,-61.5206
ARG,CT LOBOS,15.686,-35.1917,-59.0808
ARG,CT MAGDALENA,25.0,-35.1001,-57.4839
ARG,CT MATHEU,41.0,-34.3931,-58.8372
ARG,CT MEDANITOS (RINCON DE LOS SAUCES),32.0,-37.4102,-68.9
ARG,CT MIRAMAR I,20.0,-38.2472,-57.8242
ARG,CT OLAVARRIA,38.8,-36.9439,-60.2361
ARG,CT ORAN,15.0,-23.1258,-64.3069
ARG,CT PARANA,40.0,-31.7764,-60.4553
ARG,CT PARQUE INDUSTRIAL CATAMARCA,15.0,-28.5339,-65.7997
ARG,CT PASO DE LA PATRIA,7.2,-27.3236,-58.5667
ARG,CT PEHUAJO,22.4,-35.8336,-61.8758
ARG,CT PINAMAR,21.0,-37.0953,-56.8789
ARG,CT PIRANE,16.25,-25.6786,-59.0756
ARG,CT PLUSPETROL NORTE,246.0,-26.9955,-65.166
ARG,CT RAFAELA,19.2,-31.2567,-61.5203
ARG,CT REALICO,24.0,-35.055,-64.2406
ARG,CT ROCA,130.0,-31.8919,-60.0106
ARG,CT SAENZ PEÑA  I,20.0,-26.8156,-60.4114
ARG,CT SAENZ PEÑA  II,15.0,-26.8153,-60.4125
ARG,CT SALTO,22.5,-27.4597,-65.6055
ARG,CT SAN MARTIN NORTE III,5.1000000000000005,-34.5252,-58.6206
ARG,CT SAN MIGUEL DE TUCUMAN,396.62,-26.9955,-65.166
ARG,CT SAN MIGUEL NORTE III,11.5,-34.5252,-58.6206
ARG,CT SANTA ROSA,6.0,-28.2628,-58.0006
ARG,CT TARTAGAL,10.0,-22.5406,-63.8056
ARG,CT TEREVINTOS,8.0,-28.4289,-65.7878
ARG,CT TINOGASTA,15.0,-28.0486,-67.5667
ARG,CT TUCUMAN,438.0,-26.9955,-65.166
ARG,CT VENADO TUERTO,19.2,-33.7736,-61.9564
ARG,CT VIALE,10.0,-31.8919,-60.0106
ARG,CT VILLA ANGELA,15.0,-27.5808,-60.7094
ARG,CT VILLA REGINA,5.0,-39.0872,-67.0881
ARG,CUESTA DEL VIENTO,10.55,-30.1833,-69.0667
ARG,Cafayate,80.0,-26.04,-65.93
ARG,Caldenes del Oeste,30.0,-33.61,-65.445
ARG,Cauchari,300.0,-23.8,-66.8
ARG,DEAN FUNES,70.12,-31.3934,-64.2059
ARG,DIQUE,68.44,-34.8902,-57.933
ARG,DOCK SUD,872.3,-34.6533,-58.342
ARG,EL CADILLAL,14.0,-26.6156,-65.1929
ARG,EL CARRIZAL,17.0,-33.2993,-68.7199
ARG,EL CHOCON,1200.0,-39.2577,-68.7483
ARG,EL TIGRE,14.4,-34.61,-68.6136
ARG,EL TUNAL,11.0,-25.2323,-64.4762
ARG,EMBALSE,648.0,-32.2316,-64.4422
ARG,ESCABA,24.0,-27.6589,-65.7633
ARG,ESQUINA,2.215,-30.0102,-59.5321
ARG,EX CENTRAL BUENOS AIRES,321.0,-34.627,-58.3382
ARG,FILO MORADO,67.5,-37.2742,-69.652
ARG,FITZ SIMON,10.8,-32.1784,-64.4207
ARG,FLORENTINO AMEGHINO,60.0,-43.6996,-66.4815
ARG,FUTALEUFU,472.0,-43.1288,-71.63
ARG,GENERACION FRIAS SA,60.0,-28.6072,-65.1228
ARG,GENERAL ACHA,1.8,-37.4309,-64.716
ARG,GENERAL LEVALLE,72.78,-34.0364,-63.9217
ARG,GENERAL SAN MARTIN,6.0,-33.0449,-68.9219
ARG,GOYA,1.33,-29.1388,-59.2277
ARG,GOYA (ELECTROPATAGONIA SA),17.3,-29.1388,-59.2277
ARG,GUILLERMO CESPEDES,5.2,-39.56,-65.6817
ARG,H. PICHI PICUN LEUFU,285.0,-40.012,-69.9918
ARG,ISLA VERDE,3.115,-33.2422,-62.3946
ARG,ITA IBATE,1.052,-27.4252,-57.3341
ARG,ITUZAINGO,1.33,-27.5785,-56.6726
ARG,Iglesia-Guañizuil,80.0,-30.34,-69.27
ARG,JULIAN  ROMERO,6.2,-38.8367,-68.038
ARG,LA CRUZ,1.33,-29.1762,-56.6394
ARG,LA PLATA COGENERACION,128.0,-34.889,-57.9206
ARG,LA RIOJA,42.0,-29.3823,-66.8325
ARG,LA TABLADA,22.15,-27.4184,-55.9097
ARG,LA VIÑA,16.0,-31.8708,-65.0349
ARG,LAS MADERAS,30.0,-24.4438,-65.2203
ARG,LOS CORONELES (EX 25  DE MAYO),6.6000000000000005,-34.6,-68.5285
ARG,LOS MOLINOS I,59.04,-31.838,-64.4452
ARG,LOS MOLINOS II,4.5,-31.838,-64.4452
ARG,LOS QUIROGA,2.5,-27.6509,-64.3618
ARG,LOS REYUNOS,224.0,-34.6028,-68.6383
ARG,LUJAN DE CUYO,549.76,-33.0551,-68.981
ARG,MAR DE AJO,34.0,-36.7208,-63.1977
ARG,MAR DEL PLATA (9 DE JULIO),201.3,-38.0495,-57.546
ARG,MAYOR BURATOVICH,2.02,-39.2291,-62.6497
ARG,MBURUCUYA,1.035,-28.0441,-58.2285
ARG,MERCEDES,2.308,-29.1808,-58.0793
ARG,MODESTO MARANZANA,250.0,-33.1608,-64.3656
ARG,NECOCHEA,206.0,-38.5785,-58.7108
ARG,NIHUIL I,74.24,-34.9907,-68.6237
ARG,NIHUIL II,133.12,-34.9039,-68.6177
ARG,NIHUIL III,52.0,-34.8821,-68.576
ARG,NIHUIL IV,22.4,-34.833,-68.5168
ARG,NUEVA ESPERANZA,3.38,-26.2072,-64.2477
ARG,NUEVO PUERTO,1217.7,-34.5721,-58.3835
ARG,OBERA (TG Nº21 FIAT ),17.2,-27.5019,-55.1245
ARG,ORENSE,1.72,-38.6851,-59.7804
ARG,PARANA,845.26,-33.3549,-60.1718
ARG,PARQUE EOLICO ARAUCO SAPEM I,25.2,-28.6684,-66.7524
ARG,PARQUE EOLICO ARAUCO SAPEM II,25.2,-28.6684,-66.7524
ARG,PARQUE EOLICO DIADEMA,6.3,-45.7458,-67.6953
ARG,PARQUE EOLICO EL TORDILLO,3.0,-45.8507,-67.9081
ARG,PARQUE EOLICO LOMA BLANCA IV (ENARSA),50.0,-43.0907,-65.2298
ARG,PARQUE EOLICO RAWSON I (ENARSA),48.6,-43.3522,-65.1734
ARG,PARQUE EOLICO RAWSON II (ENARSA),28.8,-43.3522,-65.1734
ARG,PASO DE LOS LIBRES,2.135,-29.7148,-57.0933
ARG,PATAGONIA,123.7,-45.7934,-67.5145
ARG,PERUGORRIA,1.11,-29.34,-58.6077
ARG,PICO TRUNCADO - JORGE ROMANUTTI,2.4,-46.8065,-67.9808
ARG,PICO TRUNCADO I,45.6,-46.7842,-67.9498
ARG,PIEDRA DEL AGUILA (CPSA),1400.0,-31.6651,-63.8314
ARG,PIEDRAS MORAS,6.3,-32.1675,-64.2438
ARG,PILAR  BICENTENARIO,467.0,-31.6651,-63.8314
ARG,PILAR ZANICHELLI,216.0,-31.6662,-63.8344
ARG,PLANICIE BANDERITA,472.0,-28.5339,-65.7997
ARG,PLANTA PILOTO FOTOVOLTAICA SAN JUAN 1,1.2,-31.3891,-68.6752
ARG,PRESIDENTE SARMIENTO,31.5,-31.5129,-68.5399
ARG,PUEBLO VIEJO,19.2,-27.1149,-65.7523
ARG,PUERTO MADRYN,42.0,-42.7069,-65.1048
ARG,PUERTO NUEVO,589.0,-34.5754,-58.3788
ARG,PUNTA ALTA - CENTENARIO,1.8,-38.7833,-61.8984
ARG,QUEBRADA DE ULLUM,45.0,-31.2567,-61.5203
ARG,RIO CORRALITO,13.2,-24.983,-65.686
ARG,RIO CUARTO,35.57,-33.1614,-64.3649
ARG,RIO GRANDE,750.0,-53.7862,-67.7222
ARG,RIO HONDO,19.0,-27.5225,-64.8861
ARG,SALTO ANDERSEN,7.9,-38.8244,-64.8296
ARG,SALTO GRANDE (MITAD ARGENTINA),945.0,-31.3891,-68.6752
ARG,SAN FRANCISCO,40.0,-31.4391,-62.1119
ARG,SAN MARTIN DE LOS ANDES,4.218,-40.1511,-71.334
ARG,SAN NICOLAS,644.0,-33.3562,-60.1729
ARG,SAN PEDRO,2.216,-26.6253,-54.1102
ARG,SAN ROQUE,26.0,-31.3533,-64.3938
ARG,SANTA ISABEL,2.25,-36.2314,-66.9381
ARG,SANTO TOME,2.684,-28.5497,-56.0722
ARG,SORRENTO,226.0,-32.9053,-60.6807
ARG,SUDOESTE,140.0,-31.463,-64.2388
ARG,Saujil,22.5,-28.165,-66.225
ARG,TARTAGAL,17.0,-22.5099,-63.797
ARG,TENARIS SIDERCA CETE II,163.20000000000002,-33.3655,-60.1435
ARG,TOSTADO,3.2,-29.2352,-61.7577
ARG,ULLUM,42.0,-31.4557,-68.7556
ARG,URUGUA-I,120.0,-25.8766,-54.5687
ARG,VENADO TUERTO,9.1,-33.7777,-61.9555
ARG,VILLA GESELL,130.0,-37.2487,-56.9973
ARG,VILLA MARIA (LAS PLAYAS),48.0,-39.0872,-67.0881
ARG,VUELTA DE OBLIGADO,560.0,-32.5807,-60.7903
ARG,YACYRETA,1550.0,-27.4827,-56.7397
ARM,Armenian-2,375.0,40.1805,44.1498
ARM,Hrazadan,1110.0,40.564,44.7479
ARM,New Yerevan,271.0,40.1152,44.4973
ARM,Sevan-Hrazdan Cascade,561.0,40.5078,44.7606
ARM,Shamb,170.0,39.4743,46.1306
ARM,Spandaryan,76.0,39.6494,45.85
ARM,Tatev,158.0,39.3956,46.2578
ARM,Yerevan,550.0,40.1138,44.5038
AUS,Adelaide Showgrounds,1.0,-34.9453,138.5882
AUS,Albany Wind Farm,21.6,-35.0641,117.7977
AUS,Amcor Gawler,4.0,-34.5509,138.7659
AUS,Angaston,50.0,-34.5034,139.0246
AUS,Anglesea,165.0,-38.3861,144.1828
AUS,Angurugu,3.6,-13.8584,136.4209
AUS,Appin (Mine),55.6,-34.2082,150.7722
AUS,Ararat Wind Farm,240.0,-37.2385,143.0794
AUS,Argyle Diamond Mine,32.0,-16.7162,128.4031
AUS,Bairnsdale,94.0,-37.8429,147.5639
AUS,Ballarat Base Hospital,3.0,-37.5596,143.8469
AUS,Banimboola,12.85,-36.5344,147.4594
AUS,Bankstown Sports Club,2.0,-33.9197,151.0332
AUS,Bannerton Solar Farm,88.0,-34.6899,142.7452
AUS,Barcaldine (Len Wishaw),37.0,-23.5525,145.3142
AUS,Barcaldine KDB,20.0,-23.549,145.318
AUS,Barcaldine YD,10.9,-23.5388,145.2732
AUS,Barron Gorge,60.0,-16.8502,145.6465
AUS,Bastyan,79.9,-41.736,145.5321
AUS,Bayswater,2640.0,-32.3953,150.9491
AUS,Belconnen,1.0,-35.2142,148.9872
AUS,Bell Bay (Bell Bay Three),115.0,-41.1429,146.903
AUS,Bendeela (Shoalhaven Scheme),240.0,-34.7337,150.4669
AUS,Berrimah,10.0,-12.4262,130.9195
AUS,Berwick,7.2,-38.1197,145.2665
AUS,Beryl AU,87.0,-32.353,149.468
AUS,Bidyadanga,1.3,-18.6816,121.7848
AUS,Blayney Wind Farm,9.9,-33.6219,149.1982
AUS,Blowering,70.0,-35.3986,148.2463
AUS,Blue Lake Milling Power Plant,1.0,-36.3164,140.7575
AUS,Bluff Point (Woolnorth) Wind Farm,65.0,-40.7207,144.6869
AUS,Boco Rock,113.0,-36.5763,149.1267
AUS,Bodangora Wind Farm,113.0,-32.4146,149.0998
AUS,Bogong (Mount Beauty Hydro Scheme),300.0,-36.8055,147.228
AUS,Braemar 1,504.0,-27.1109,150.9053
AUS,Braemar 2,519.0,-27.1128,150.9049
AUS,Bremer Bay Diesel Backup,1.3,-34.4018,119.3888
AUS,Brewer,8.5,-23.8817,133.8281
AUS,Brisbane BNE,6.0,-27.404,153.11
AUS,Broadmeadows,12.2,-37.6878,144.9663
AUS,Broadwater,38.0,-29.0118,153.4335
AUS,Broken Hill,50.0,-31.9863,141.4203
AUS,Broken Hill Solar Plant,53.0,-31.9867,141.3915
AUS,Brooklyn,2.83,-37.818,144.8319
AUS,Broome,39.6,-17.981,122.2046
AUS,Brown Mountain,4.95,-36.5951,149.474
AUS,Browns Plains,2.2,-27.6721,153.0663
AUS,Bulwer Island,33.0,-27.4036,153.1363
AUS,Bungala I,110.0,-32.427,137.838
AUS,Bungala II,110.0,-32.408,137.841
AUS,Burrendong,19.0,-32.6646,149.108
AUS,Burrinjuck Power Station,27.0,-35.0025,148.5834
AUS,Burrup Peninsula (Karratha Gas Plant),240.0,-20.6286,116.7821
AUS,Burrup Peninsula (Pluto Phase 1),160.0,-20.5937,116.7802
AUS,Butlers Gorge,14.4,-42.2669,146.2618
AUS,CSIRO Energy Centre,1.5,-32.8835,151.7275
AUS,Callide A,30.0,-24.334,150.628
AUS,Callide B,700.0,-24.3449,150.6197
AUS,Callide C,840.0,-24.3449,150.6182
AUS,Camballin,1.04,-18.0278,124.1621
AUS,Canning Vale,4.0,-32.0739,115.8914
AUS,Cannington Mine,40.0,-21.8601,140.9158
AUS,Canunda Wind Farm,46.0,-37.7603,140.4033
AUS,Cape Bridgewater Wind Farm,58.0,-38.3577,141.385
AUS,Cape Lambert,105.0,-20.6488,117.1407
AUS,Cape Nelson North Wind Farm,22.0,-38.3676,141.543
AUS,Cape Nelson South Wind Farm,44.0,-38.412,141.543
AUS,Cape Preston,450.0,-21.0767,116.159
AUS,Cape Sir William Grant Wind Farm,54.0,-38.3976,141.6209
AUS,Capital Hill Wind Farm,140.0,-35.166,149.5186
AUS,Capral (Aluminium Smelter),300.0,-32.7897,151.4813
AUS,Carnarvon,15.0,-24.8692,113.6754
AUS,Catagunya,48.0,-42.4524,146.5977
AUS,Cathedral Rocks Wind Farm,66.0,-34.8509,135.5852
AUS,Cawse Nickel Mine,21.0,-30.3808,121.1635
AUS,Cethana,85.0,-41.4787,146.1349
AUS,Challicum Hills Wind Farm,52.5,-37.3898,143.114
AUS,Channel Island,310.0,-12.555,130.8666
AUS,Charlestown Square,2.8,-32.9643,151.6936
AUS,Childers,75.0,-25.28,152.38
AUS,Christmas Creek Iron Ore Mine,58.0,-22.399,119.732
AUS,Clare Solar Farm,130.0,-19.8398,147.2105
AUS,Claytons,11.0,-37.9502,145.1187
AUS,Clements Gap Wind Farm,57.0,-33.5086,138.1192
AUS,Clermont Solar Farm,100.0,-22.8446,147.5855
AUS,Cloudbreak,44.0,-22.3247,119.404
AUS,Clover,30.0,-36.7853,147.2205
AUS,Cluny,17.0,-42.5064,146.6812
AUS,Cockburn,240.0,-32.2001,115.7737
AUS,Codrington Wind Farm,18.2,-38.2835,141.9547
AUS,Collgar Wind Farm,206.0,-31.5432,118.4566
AUS,Collie (Bluewaters),416.0,-33.331,116.229
AUS,Collie A,340.0,-33.3422,116.2612
AUS,Collinsville,190.0,-20.5447,147.8049
AUS,Collinsville Solar Farm,42.0,-20.5411,147.8074
AUS,Colongra,724.0,-33.2099,151.5448
AUS,Condamine A,144.0,-26.6682,150.27
AUS,Condong Sugar Mill,30.0,-28.3138,153.4341
AUS,Copeton,24.0,-29.9102,150.9235
AUS,Coral Bay Diesel Backup,2.24,-23.1521,113.7762
AUS,Corio,1.0,-38.0587,144.4056
AUS,Crookwell Wind Farm,4.8,-34.5165,149.5425
AUS,Crowlands Wind Farm,80.0,-37.1216,143.1537
AUS,Cullerin Range Wind Farm,30.0,-34.805,149.4001
AUS,Daandine,33.0,-27.0863,150.943
AUS,Dampier,120.0,-20.648,116.7219
AUS,Darling Downs,644.0,-27.1169,150.8942
AUS,Darling Downs Solar Farm,110.0,-27.1169,150.8942
AUS,Darlot Gold Mine,11.7,-27.8972,121.2698
AUS,Dartmouth (Mount Beauty Hydro Scheme),150.0,-36.5564,147.5206
AUS,Darwin DRW,4.0,-12.4157,130.8908
AUS,Daydream Solar Farm ,50.0,-20.4947,147.7707
AUS,DeGrussa,10.6,-25.55,119.317
AUS,Denham Diesel Backup,1.6,-25.9167,113.534
AUS,Derby,12.53,-17.3141,123.6441
AUS,Devils Gate,60.0,-41.3505,146.2632
AUS,Diamantina,242.0,-20.7837,139.4833
AUS,Dry Creek,156.0,-34.8475,138.5818
AUS,Dubbo,30.0,-32.273,148.658
AUS,EarthPower Biomass Plant,3.9,-33.8204,151.042
AUS,Eastern Creek,5.4,-33.8142,150.8537
AUS,Eastern Creek 2,8.984,-33.8125,150.8617
AUS,Eildon,120.0,-37.222,145.9215
AUS,Eildon Small Hydro,5.0,-37.2431,145.8974
AUS,Elliott,1.0,-17.5504,133.5393
AUS,Emerald Solar Farm,68.0,-23.5084,148.1347
AUS,Emu Downs,20.0,-30.489,115.416
AUS,Emu Downs Wind Farm,79.2,-30.4882,115.3768
AUS,Energy Brix,195.0,-38.2546,146.4137
AUS,Eraring,41.5,-33.0617,151.5223
AUS,Esperance,33.0,-33.8762,121.8998
AUS,Esperance Wind Farm Nine Mile Beach,3.6,-33.8927,121.7778
AUS,Esperance Wind Farm Ten Mile Lagoon,2.03,-33.8802,121.769
AUS,Exmouth,8.0,-21.9465,114.125
AUS,Fisher,43.2,-41.6732,146.2687
AUS,Fitzroy Crossing,4.06,-18.1956,125.5597
AUS,Gannawarra Solar Farm,60.0,-35.6762,143.4553
AUS,Geraldton,21.0,-28.7701,114.6485
AUS,German Creek,45.2,-22.9281,148.5515
AUS,Gladstone,1680.0,-23.8508,151.2187
AUS,Glenbawn,5.8,-32.1097,150.9982
AUS,Glennies Creek,13.0,-32.4598,151.1286
AUS,Glenorchy,1.6,-42.8415,147.255
AUS,Goondiwindi,4.5,-28.325,150.375
AUS,Gordon,432.0,-42.7405,145.9828
AUS,Gosnells,1.1,-32.0228,116.0129
AUS,Grange Avenue,2.0,-33.7029,150.8312
AUS,Grasmere Wind Farm (Albany Stage II),13.8,-35.0507,117.7638
AUS,Greenough River Solar Farm,10.0,-28.9043,115.1119
AUS,Griffith Solar Farm,36.0,-34.3155,146.1094
AUS,Gullen,10.0,-34.61,149.476
AUS,Gullen Range Wind Farm,165.5,-34.6149,149.4597
AUS,Gunning,47.0,-34.6977,149.3861
AUS,Guthega,80.0,-36.3501,148.4135
AUS,Hallam Road,8.984,-38.0535,145.2699
AUS,Hallet 5 - The Bluff,52.5,-33.3855,138.7928
AUS,Hallett,228.3,-33.3487,138.7517
AUS,Hallett 1 Brown Hill Wind Farm,94.5,-33.3397,138.7323
AUS,Hallett 2 Hallet Hill Wind Farm,71.4,-33.5226,138.8552
AUS,Halls Creek,3.69,-18.2328,127.6619
AUS,Hamilton Solar Farm,69.0,-20.5048,147.7671
AUS,Haughton River Solar Farm,500.0,-19.733,147.0483
AUS,Hayman Solar Farm,180.0,-20.4877,147.7449
AUS,Hazelwood,1600.0,-38.2731,146.3923
AUS,Henderson,3.2,-32.165,115.8008
AUS,Highbury,2.0,-34.849,138.7203
AUS,Hobart,1.0,-42.8883,147.2888
AUS,Hopetoun Diesel Backup,1.3,-33.905,120.1299
AUS,Hopetoun Wind Turbines,1.2,-33.9078,120.1297
AUS,Hughendon,20.0,-20.875,144.17
AUS,Hume,70.0,-36.1066,147.0326
AUS,Hunter,29.0,-32.836,151.4505
AUS,Hunter Valley,50.0,-32.3893,150.9664
AUS,Inkerman Sugar Mill,10.5,-19.6422,147.4016
AUS,Invicta Sugar Mill,150.0,-19.5167,147.1065
AUS,Isis Central Sugar Mill,25.0,-25.194,152.2086
AUS,Jacks Gully,2.3,-34.0734,150.7427
AUS,Jeeralang A,204.0,-38.2753,146.4263
AUS,Jeeralang B,228.0,-38.2746,146.4249
AUS,Jindabyne Dam Mini Hydro,1.1,-36.4351,148.6333
AUS,John Butters,144.0,-42.1548,145.5345
AUS,Jounama,14.0,-35.562,148.3055
AUS,Jundee Gold Mine,21.0,-26.3712,120.5776
AUS,KRC Cogeneration Plant,4.2,-27.4453,153.1185
AUS,Kalamia Sugar Mill,9.0,-19.5223,147.4152
AUS,Kalamunda,1.3,-31.9768,115.9988
AUS,Kalbarri Wind Farm,1.7,-27.8995,114.1946
AUS,Kalgoorlie (Parkeston),110.0,-30.7378,121.5065
AUS,Kalgoorlie Nickel Smelter,42.0,-30.8737,121.4842
AUS,Kambalda,42.0,-31.1919,121.6741
AUS,Kangaroo Valley (Shoalhaven Scheme),160.0,-34.723,150.4795
AUS,Karadoc Solar Farm,112.0,-34.4154,142.2521
AUS,Kareeya,88.0,-17.767,145.5779
AUS,Karratha,86.0,-20.7626,116.8375
AUS,Katherine,34.7,-14.4587,132.2445
AUS,Kemerton,260.9,-33.1633,115.7805
AUS,Kiata Wind Farm,31.05,-36.3966,141.7474
AUS,Kidston I,50.0,-18.89,144.14
AUS,King Island (Currie),8.55,-39.9388,143.892
AUS,Kogan Creek,744.0,-26.9177,150.7493
AUS,Koombooloomba,7.3,-17.8313,145.6034
AUS,Kununurra,12.4,-15.7796,128.7395
AUS,Kwinana,21.0,-32.197,115.7759
AUS,Kwinana (Alcoa Refinery),74.5,-32.1946,115.7797
AUS,Kwinana Cogeneration,123.0,-32.2225,115.7661
AUS,Kwinana High Efficiency Gas Turbine Plant,200.0,-32.1973,115.7754
AUS,Kwinana NewGen,320.0,-32.202,115.7728
AUS,Kwinana Swift,120.0,-32.2243,115.7783
AUS,Ladbroke Grove,80.0,-37.4567,140.7827
AUS,Lake Bonney Stage 1 Wind Farm,80.5,-37.7815,140.4058
AUS,Lake Bonney Stage 2 Wind Farm,159.0,-37.8149,140.4195
AUS,Lake Bonney Stage 3 Wind Farm,39.0,-37.7505,140.393
AUS,Lake Cargelligo CSP,3.0,-33.311,146.4092
AUS,Lake Echo,32.4,-42.2537,146.6207
AUS,Lake Glenmaggie,4.0,-37.9047,146.8011
AUS,Lake Keepit,6.5,-30.8792,150.4914
AUS,Lake William Hovell,2.0,-36.9129,146.3921
AUS,Lakeland QLD,10.9,-15.869,144.862
AUS,Landfill Management Services Shoal Bay,1.1,-12.3892,130.9254
AUS,Laverton,1.5,-28.6216,122.3965
AUS,Laverton (Granny Smith Gold Mine),30.6,-28.8096,122.415
AUS,Laverton North,312.0,-37.8416,144.7887
AUS,Leichhardt,60.0,-20.7835,139.4864
AUS,Leinster Nickel Mine,59.0,-27.8141,120.699
AUS,Lemonthyme,81.6,-41.6038,146.139
AUS,Leonards Hill,4.1,-37.4271,144.1222
AUS,Leonora,4.43,-28.8811,121.3213
AUS,Liapootah,87.3,-42.3763,146.5099
AUS,Liddell,2200.0,-32.3713,150.9776
AUS,Liddell Solar Thermal,9.3,-32.3761,150.9797
AUS,Lilyvale Solar Farm,100.0,-23.0875,148.439
AUS,Lincoln Gap,10.0,-32.5645,137.5572
AUS,Longford,31.0,-38.2236,147.1657
AUS,Lonsdale,20.0,-35.1097,138.491
AUS,Lower Lake Margaret,3.2,-42.0147,145.5261
AUS,Lower Rubicon,13.55,-37.3027,145.8458
AUS,Loy Yang A,2180.0,-38.2536,146.5746
AUS,Loy Yang B,1000.0,-38.2564,146.5864
AUS,Lucas Heights I,5.39,-34.0293,151.0021
AUS,Lucas Heights II,16.0,-34.0481,150.9739
AUS,Macarthur Wind Farm,420.0,-38.0648,142.1844
AUS,Mackay,30.0,-21.1446,149.1591
AUS,Mackintosh,79.9,-41.6997,145.6461
AUS,Macknade Sugar Mill,8.0,-18.589,146.258
AUS,Mandurah,1.3,-32.5079,115.759
AUS,Manildra Solar Farm,46.0,-33.1733,148.718
AUS,Marble Bar Diesel Backup,1.28,-21.1649,119.7419
AUS,Maryborough,7.5,-25.5476,152.7171
AUS,Maryvale Mill,54.5,-38.1809,146.4479
AUS,McArthur River Mine,78.0,-16.4335,136.0935
AUS,McKay Creek (Mount Beauty Hydro Scheme),150.0,-36.8584,147.2345
AUS,Meadowbank,40.0,-42.6112,146.8457
AUS,Meekatharra,2.9,-26.5952,118.483
AUS,Melbourne,1.2,-37.8086,144.9685
AUS,Merredin,82.0,-31.5423,118.227
AUS,Mica Creek,325.0,-20.7776,139.4906
AUS,Millmerran,856.0,-27.9615,151.2789
AUS,Mintaro,90.0,-33.9031,138.7383
AUS,Moorabool North Wind Farm,131.0,-37.655,144.1913
AUS,Moorabool South Wind Farm,131.0,-37.7402,144.1622
AUS,Moranbah,12.56,-21.9851,148.0246
AUS,Moranbah North,45.7,-21.8967,147.9507
AUS,Moree,60.0,-29.5722,149.8669
AUS,Mornington,1.0,-38.3916,144.8553
AUS,Mortlake,566.0,-38.0632,142.6675
AUS,Mortons Lane Wind Farm,20.0,-37.8413,142.4653
AUS,Mount Keith Nickel Mine,112.0,-27.2146,120.548
AUS,Mount Magnet,1.9,-28.0871,117.8327
AUS,Mount Millar Wind Farm,70.0,-33.6255,136.7039
AUS,Mount Stuart,423.0,-19.338,146.8512
AUS,Mt Gambier,10.0,-37.8388,140.8057
AUS,Mt Gellibrand Wind Farm,189.0,-38.2587,143.8019
AUS,Mt Mercer Wind Farm,131.0,-37.8317,143.8892
AUS,Mt Piper,1400.0,-33.3589,150.0313
AUS,Mugga Lane,3.5,-35.3953,149.1458
AUS,Mugga Lane Solar Park,13.0,-35.3989,149.146
AUS,Muja C,400.0,-33.446,116.3062
AUS,Muja D,454.0,-33.4464,116.3074
AUS,Mulgrave,13.0,-17.0932,145.7887
AUS,Mumbida Wind Farm,55.0,-28.9918,114.9599
AUS,Mungarra,112.0,-28.8893,115.1177
AUS,Mungullah,18.0,-24.8911,113.7095
AUS,Munmorah,600.0,-33.2117,151.5418
AUS,Murra Warra Wind Farm,429.0,-36.4333,142.3182
AUS,Murray 1,950.0,-36.2467,148.1901
AUS,Murray 2,552.0,-36.2423,148.1362
AUS,Murrin Murrin (Nickel Mine),78.0,-28.9238,121.3293
AUS,Musselroe,168.0,-40.7798,148.0097
AUS,Narrogin Bioenergy Plant,1.0,-32.9521,117.1916
AUS,Narromine,15.0,-32.224,148.256
AUS,Neerabup,330.0,-31.6712,115.8021
AUS,Newman Iron Ore Mine,170.0,-23.3443,119.7086
AUS,Newport,500.0,-37.8415,144.8942
AUS,Nhulunbuy,24.0,-12.1889,136.6872
AUS,Nieterana,2.2,-42.2686,146.2629
AUS,Nine Network,3.2,-33.811,151.1966
AUS,Noranda,1.1,-31.8654,115.8773
AUS,Normanton,4.5,-17.681,141.05
AUS,Norseman Mine,9.0,-32.1963,121.7943
AUS,North Brown Hill  Wind Farm,132.3,-33.3093,138.7296
AUS,North Sydney,2.4,-33.8398,151.2069
AUS,Northam,10.0,-31.652,116.711
AUS,Numurkah Solar Farm,100.0,-36.1592,145.4746
AUS,Nymboida,33.6,-29.9257,152.7417
AUS,Nyngan Solar Plant,102.0,-31.5527,147.0854
AUS,Oakey,282.0,-27.4183,151.6797
AUS,Oakey 1,25.0,-27.406,151.647
AUS,Oakey 2,55.0,-27.412,151.655
AUS,Oakland Hills Wind Farm,67.0,-37.6871,142.5467
AUS,Oaky,4.8,-30.5751,152.069
AUS,Oaky Creek,20.0,-22.9878,148.5817
AUS,Onslow,3.6,-21.6582,115.099
AUS,Ord River,30.0,-16.1201,128.7383
AUS,Osborne,180.0,-34.798,138.5079
AUS,Owen Springs,36.0,-23.8636,133.8255
AUS,Paloona,28.0,-41.2826,146.249
AUS,Paraburdoo,155.0,-23.2233,117.6133
AUS,Paraburdoo (Standby),20.0,-23.2238,117.6137
AUS,Parkes Solar Farm,66.0,-33.1027,148.075
AUS,Pedler Creek,3.0,-35.2023,138.5021
AUS,Pelican Point,478.0,-34.765,138.5053
AUS,Perth Zoo,2.37,-31.9767,115.8548
AUS,Peterborough SA,4.9,-32.945,138.905
AUS,Pindari,6.7,-29.3886,151.2442
AUS,Pine Creek,34.76,-13.7856,131.8624
AUS,Pinjar,576.0,-31.5568,115.8204
AUS,Pinjarra Bauxite Mine and Alumina Refinery,280.0,-32.6473,115.9469
AUS,Pioneer Sugar Mill,67.8,-19.5575,147.3308
AUS,Plane Creek Sugar Mill,14.0,-21.4282,149.2159
AUS,Plutonic Gold Mine,28.0,-25.311,119.4508
AUS,Poatina,100.0,-41.8115,146.9192
AUS,Port Hedland,126.0,-20.4283,118.5498
AUS,Port Hedland (Smaller),84.0,-20.3782,118.5384
AUS,Port Lincoln,73.5,-34.7003,135.8044
AUS,Port Stanvac,57.6,-35.1104,138.4915
AUS,Proserpine Sugar Mill,17.0,-20.3985,148.5797
AUS,Quarantine,224.0,-34.7793,138.5224
AUS,Racecourse Mill,3.5,-21.1635,149.1344
AUS,Ravensthorpe,56.0,-33.61,120.36
AUS,Red Hill,3.65,-31.8317,116.0992
AUS,Redbank,150.0,-32.5802,151.0719
AUS,Reece,238.0,-41.7238,145.1359
AUS,Remount,2.2,-41.395,147.1554
AUS,Repulse,28.0,-42.5077,146.647
AUS,Revesby Workers Club,2.5,-33.9534,151.0137
AUS,Rochedale,4.0,-27.5591,153.1236
AUS,Rockingham,2.1,-32.2863,115.8154
AUS,Rocky Point Sugar Sugar Mill,30.0,-27.7334,153.3276
AUS,Roghan Road,2.0,-27.3388,153.0344
AUS,Rollingstone QLD,125.0,-19.03,146.394
AUS,Roma,80.0,-26.5772,148.8402
AUS,Ron Goodin,44.6,-23.7091,133.8912
AUS,Ross River,148.0,-19.424,146.715
AUS,Rowallan,10.5,-41.7295,146.2176
AUS,Roy Hill,6.0,-22.4812,119.9472
AUS,Royalla Solar Farm,20.0,-35.4897,149.1435
AUS,Rubicon,13.55,-37.3272,145.8605
AUS,Rugby Run Solar Farm,65.0,-22.1405,147.9188
AUS,Sapphire Wind Farm,270.0,-29.6997,151.4119
AUS,Savannah Nickel Mine,10.8,-17.3631,128.0331
AUS,Shenton Park WMRC Project,1.0,-31.9577,115.7924
AUS,Shepparton Biogas Generation Plant,1.1,-36.3218,145.379
AUS,Smithfield Energy,170.9,-33.85,150.9495
AUS,Snowtown North,148.0,-33.714,138.1402
AUS,Snowtown South,126.0,-33.8302,138.1184
AUS,Snuggery,63.0,-37.6646,140.4156
AUS,Solomon Iron Ore Mine,125.0,-22.1581,117.9849
AUS,Somerton,160.0,-37.6318,144.9531
AUS,South Cardup (Shale Road Landfill),3.3,-32.2664,116.0193
AUS,South Johnstone,20.0,-17.6057,145.991
AUS,Springvale,4.2,-37.9733,145.1396
AUS,St George Leagues Club,1.0,-33.9748,151.1294
AUS,Stanwell,1460.0,-23.5097,150.3195
AUS,Stapylton Green Energy,4.8,-27.7334,153.2463
AUS,Starfish Hill Wind Farm,34.5,-35.5678,138.1432
AUS,Studland Bay (Woolnorth) Wind Farm,75.0,-40.7788,144.7362
AUS,Summerhill,5.0,-32.891,151.65
AUS,Summerhill,2.2,-32.8885,151.643
AUS,Sun Metals Solar Farm,124.0,-19.3355,146.8885
AUS,Suncoast Gold Macadamia,1.5,-26.2261,152.6981
AUS,Sunraysia,200.0,-34.804,143.491
AUS,Sunrise Dam,28.4,-29.0927,122.4393
AUS,Susan River,98.0,-25.32,152.405
AUS,Swan Hill,19.0,-35.342,143.518
AUS,Swanbank E,385.0,-27.6554,152.8179
AUS,Symex Port Melbourne,5.9,-37.8298,144.9444
AUS,Tableland,7.0,-17.1193,145.345
AUS,Tahmoor,7.0,-34.2482,150.5808
AUS,Tailem Bend Solar Farm,95.0,-35.2708,139.4924
AUS,Tallawarra,460.0,-34.5228,150.8081
AUS,Tamala Park,4.65,-31.7078,115.7266
AUS,Tamar Valley,390.0,-41.1401,146.9036
AUS,Taralga Wind Farm,107.0,-34.4314,149.8652
AUS,Tarong,1400.0,-26.7824,151.9153
AUS,Tarong (Oil),15.0,-26.7858,151.9172
AUS,Tarong North,443.0,-26.7758,151.9146
AUS,Tarraleah,90.0,-42.3012,146.4572
AUS,Tatura Biogas Generation Plant,1.1,-36.4793,145.235
AUS,Tea Tree Gully,1.0,-34.8303,138.7129
AUS,Telfer Gold Mine,159.0,-21.7129,122.2091
AUS,Tennant Creek,16.7,-19.6549,134.1753
AUS,Teralba,3.0,-32.9455,151.6119
AUS,Terminal Storage,2.5,-34.8393,138.7112
AUS,The Drop,3.0,-35.6043,145.7837
AUS,Ti Tree Bioenergy,3.3,-27.6802,152.6593
AUS,Timber Creek,1.0,-15.6562,130.479
AUS,Tods Corner,1.7,-41.9707,146.7938
AUS,Tomago Aluminium Smelter,810.0,-32.8217,151.7178
AUS,Toora Wind Farm,21.0,-38.6451,146.3441
AUS,Torrens Island A,480.0,-34.8068,138.5213
AUS,Torrens Island B,800.0,-34.8052,138.5226
AUS,Tower Mine,41.2,-34.2207,150.7179
AUS,Townsville,220.0,-19.2011,146.6187
AUS,Traralgon Network Support Station,10.0,-38.1793,146.5654
AUS,Trevallyn,80.0,-41.4226,147.1119
AUS,Tribute,82.8,-41.8129,145.6538
AUS,Tully Sugar Mill,21.4,-17.9373,145.9267
AUS,Tumut 1 (Upper Tumut),616.0,-35.9517,148.3637
AUS,Tumut 2 (Upper Tumut),336.0,-35.8814,148.3672
AUS,Tumut 3,1500.0,-35.6112,148.2917
AUS,Tungatinah,125.0,-42.2967,146.4565
AUS,University of Queensland (St Lucia Campus) Solar Array,1.2,-27.495,153.0101
AUS,Upper Lake Margaret,8.4,-42.0046,145.5437
AUS,Uranquinty,664.0,-35.1794,147.2157
AUS,Uterne Solar,1.0,-23.7685,133.8682
AUS,Valdora,15.0,-26.56,153.025
AUS,Vales Point B,1360.0,-33.1607,151.5431
AUS,Valley (Peaking Facility),300.0,-38.2536,146.5892
AUS,Victoria Sugar Mill,24.0,-18.6508,146.2016
AUS,Visy Paper Gibson Island,2.0,-27.4405,153.1158
AUS,Visy Pulp and Paper Tumut,20.0,-35.2959,148.1371
AUS,Wadeye,6.8,-14.2602,129.5368
AUS,Wagerup,380.0,-32.916,115.9186
AUS,Wagerup Bauxite Mine and Alumina Refinery,98.0,-32.9145,115.917
AUS,Walkaway Wind Farm,90.0,-28.9229,114.9282
AUS,Wallerawang C,500.0,-33.4028,150.0833
AUS,Warmun,1.3,-17.0259,128.2113
AUS,Warragamba,50.0,-33.8832,150.5965
AUS,Warrego,19.0,-19.4434,133.8236
AUS,Waterloo Wind Farm,111.0,-34.001,138.9109
AUS,Wattle Point Wind Farm,90.75,-35.1104,137.7058
AUS,Waubra Wind Farm,192.0,-37.3575,143.6037
AUS,Wayatinah,38.3,-42.4272,146.5347
AUS,Weddell,86.0,-12.5771,130.9502
AUS,Wemen Solar Farm,110.0,-34.8027,142.5457
AUS,West Angelas Mine,86.0,-23.1546,118.7245
AUS,West Illawarra Leagues Club,1.0,-34.4515,150.8429
AUS,West Kalgoorlie,60.0,-30.7806,121.4234
AUS,West Kiewa (Mount Beauty Hydro Scheme),62.0,-36.7601,147.186
AUS,West Nowra (Shoalhaven),1.0,-34.882,150.5515
AUS,Western Suburbs Leagues Club (Campbelltown),1.0,-34.0513,150.8329
AUS,White Rock,20.0,-29.765,151.553
AUS,Whitsunday Solar Farm,69.0,-20.4949,147.7481
AUS,Whitwood Road,1.0,-27.659,152.8237
AUS,Whyalla SSE,6.0,-33.007,137.558
AUS,Wilga Park,16.0,-30.3634,149.6772
AUS,Williamsdale,7.0,-35.571,149.128
AUS,Wilmot,81.6,-41.4833,146.1251
AUS,Wilpena Solar Farm,145.0,-31.5234,138.6198
AUS,Wiluna,1.3,-26.5922,120.2185
AUS,Wiluna Gold Mine,21.0,-26.6316,120.2519
AUS,Windimurra Vanadium Mine,23.7,-28.2933,118.5371
AUS,Windy Hill Wind Farm,12.0,-17.5922,145.5306
AUS,Wingfield I,5.0,-34.8348,138.5572
AUS,Wingfield II,5.0,-34.8321,138.5489
AUS,Wivenhoe,4.7,-27.3952,152.6092
AUS,Wivenhoe Hydroelectric,500.0,-27.3722,152.632
AUS,Wodgina,13.7,-21.1739,118.6747
AUS,Wollert,6.738,-37.583,145.0487
AUS,Wonthaggi Wind Farm,12.0,-38.6037,145.5462
AUS,Woodlawn Bioreactor,7.0,-35.059,149.5769
AUS,Woodlawn Wind Farm,48.0,-35.0861,149.5716
AUS,Woodman Point,1.8,-32.1424,115.7713
AUS,Worsley,120.0,-33.2355,116.0688
AUS,Worsley Cogeneration,106.0,-33.2365,116.0637
AUS,Wyangala A,20.0,-33.981,148.9473
AUS,Wyndham,1.0,-37.9375,144.5902
AUS,Xstata X41,30.0,-20.7437,139.4803
AUS,Yallourn,1480.0,-38.177,146.3428
AUS,Yaloak South Wind Farm,131.0,-37.7281,144.2408
AUS,Yambuk Wind Farm,30.0,-38.3079,142.0151
AUS,Yarrawonga,9.0,-36.0094,145.9995
AUS,Yarwun,154.0,-23.8306,151.1519
AUS,Yatpool,81.0,-34.407,142.179
AUS,Yulara,10.95,-25.2323,130.9912
AUS,Yurralyi Maya (Karratha Seven Mile),180.0,-20.762,116.742
AUT,Abwinden-Asten,168.0,48.248,14.4305
AUT,Altenmarkt,26.0,46.7667,15.55
AUT,Arnstein,30.0,47.0167,15.1667
AUT,Aschach,287.0,48.3853,14.023
AUT,Bischofshofen,16.0,47.407,13.2205
AUT,Braunau-Simbach,100.0,48.244,13.006
AUT,Dionysen,16.0,47.4167,15.2833
AUT,Donaustadt,395.0,48.2,16.4633
AUT,Ering-Frauenstein,72.0,48.2194,13.16
AUT,Erzbach,1.0,47.6,14.7333
AUT,Feistritz-Ludmannsdorf,88.0,46.5347,14.1712
AUT,Feldkirchen,38.0,46.8638,13.3355
AUT,Ferlach Maria Rain,75.0,46.5462,14.2985
AUT,Fisching,22.0,47.1667,14.7333
AUT,Freudenau Danube,172.0,48.1764,16.4811
AUT,Friesach,12.0,47.1667,15.3333
AUT,Funsingau,25.0,47.2354,12.0583
AUT,Gabersdorf,14.0,46.7772,15.5842
AUT,Gaming,14.0,48.1766,16.4813
AUT,Gerlos,200.0,47.2342,11.8997
AUT,Gratkorn,11.0,47.1333,15.35
AUT,Greifenstein,293.0,48.3553,16.2424
AUT,Hieflau,63.0,47.6,14.7333
AUT,Hieflau-Erzbach,1.0,47.6,14.7333
AUT,Jochenstein,132.0,48.5184,13.7076
AUT,KW Amlach,60.0,46.8142,12.7618
AUT,KW Imst,89.0,47.2122,10.7215
AUT,KW Jenbach,79.0,47.3932,11.7886
AUT,KW Kaunertal,392.0,47.0678,10.6652
AUT,KW Kühtai,289.0,47.2078,11.0057
AUT,KW Silz,500.0,47.2696,10.9678
AUT,Kaprun Limberg II,480.0,47.1985,12.7223
AUT,Kaprun Oberstufe,113.0,47.1968,12.7192
AUT,Kaprun main stage,240.0,47.2591,12.7389
AUT,Kellerberg,25.0,46.67,13.6886
AUT,Klammsee,1.0,47.2591,12.7389
AUT,Klaus,20.0,47.8314,14.1572
AUT,Kopswerk II,525.0,46.975,10.043
AUT,Kreuzbergmaut,18.0,47.4412,13.2108
AUT,Kreuzeck days storage,45.0,46.8727,13.3117
AUT,Krippau,30.0,47.6833,14.7
AUT,Landl,25.0,47.65,14.7167
AUT,Laufnitzdorf,18.0,47.3,15.3167
AUT,Lebring,20.0,46.8522,15.5383
AUT,Leoben,10.0,47.3833,15.1
AUT,Losenstein,39.0,47.9243,14.4367
AUT,Low Tuxbach - Small power plant Stillupp,2.0,47.1485,11.8225
AUT,Lünerseewerk,280.0,47.074,9.874
AUT,Malta Secondary school,120.0,47.0659,13.3539
AUT,Malta main stage,730.0,47.0659,13.3539
AUT,Mandling,6.0,47.4,13.5667
AUT,Mayrhofen,355.0,47.1581,11.8501
AUT,Melk,187.0,48.2232,15.3042
AUT,Mellach run power plant,16.0,46.8833,15.5167
AUT,Neuötting,26.1,40.1247,-8.7751
AUT,Niklai,2.0,46.8167,13.3167
AUT,Nussdorf near Vienna,5.0,47.2167,14.4833
AUT,Oberaudorf Ebbs,60.0,47.6413,12.1989
AUT,Obervermuntwerk,30.0,46.9271,10.0539
AUT,Obervogau,13.0,46.745,15.5847
AUT,Ottensheim-Wilhering,179.0,48.3166,14.1512
AUT,Passau-Ingling,86.0,48.5536,13.4371
AUT,Paternion,24.0,46.7209,13.6453
AUT,Peggau,13.0,47.2,15.35
AUT,Pernegg,22.0,47.3598,15.3424
AUT,Pichlern,2.0,47.65,13.6667
AUT,Rabenstein,14.0,47.35,13.6833
AUT,Retznei,1.0,46.7333,15.5667
AUT,Rodundwerk I,198.0,47.085,9.8813
AUT,Rodundwerk II,295.0,47.0847,9.8744
AUT,Rosegg-St. James,80.0,46.5696,14.0268
AUT,Rosenau,34.0,48.489,14.6288
AUT,Schonau,30.0,48.3946,14.7302
AUT,Schwabeck,79.0,46.658,14.8726
AUT,Schwarzach,120.0,47.3152,13.1389
AUT,Simmering,1272.0,48.1815,16.4334
AUT,St. Georgen,6.0,47.5333,14.3667
AUT,St. Johann,16.0,47.3386,13.1974
AUT,St. Martin,10.0,47.4467,15.2849
AUT,St. Pantaleon,52.0,48.0076,12.8942
AUT,St. Veit,16.0,47.3214,13.1744
AUT,Staning,43.0,48.1007,14.4568
AUT,Steinfeld,1.0,46.7656,13.2717
AUT,Ternberg,40.0,47.9333,14.35
AUT,Timelkam,400.0,48.0122,13.5895
AUT,Triebenbach,10.0,47.5,14.4667
AUT,Tuxbach,1.0,47.1485,11.8225
AUT,Urreiting,16.0,47.3749,13.2101
AUT,Vermuntwerk,157.0,46.9684,10.0599
AUT,Vienna-Freudenau,172.0,48.1766,16.4814
AUT,Villach,25.0,46.6329,13.8294
AUT,Walgauwerk,86.0,47.192,9.6815
AUT,Wallnerau Salzach stage,13.0,47.316,13.141
AUT,Wallnerau underwater stage,5.0,47.3833,12.6
AUT,Wallsee-Mitterkirchen,210.0,48.1666,14.6953
AUT,Weissenegg,1.0,46.8167,15.8667
AUT,Werfen-Pfarrwerfen,16.0,47.4698,13.1945
AUT,Weyer,37.0,48.1465,14.1176
AUT,Wind Park Bruck an der Leitha,9.0,48.0338,16.7264
AUT,Wind Park Hollern II,37.0,48.09,16.844
AUT,Wind Park Petronell-Carnuntum II,21.0,48.09,16.844
AUT,Windpark Bruck-Göttlesbrunn,21.0,48.095,16.89
AUT,Ybbs-Persenbeug,236.0,48.1892,15.0682
AZE,Astara ES,87.0,38.456,48.875
AZE,Azerbaijan TPP,2400.0,40.78,46.9901
AZE,Baku ES,105.0,40.3734,49.9192
AZE,Baku TEC,107.0,40.3734,49.9192
AZE,Gusar,1.0,41.3979,48.3308
AZE,Janub,780.0,39.8943,48.9173
AZE,Khachmaz ES,87.0,41.4635,48.806
AZE,Mingechevir,402.0,40.79,47.0287
AZE,Sangachal ES,299.0,40.1794,49.47
AZE,Shamkir,405.0,40.9487,46.168
AZE,Shimal,400.0,40.4995,50.2077
AZE,Sumqayit,525.0,40.6036,49.6332
AZE,Varvara,16.0,40.6837,47.0926
AZE,Yenikend,150.0,40.9193,46.2829
BHR,Al Dur Power and Water,1540.0,25.9714,50.6076
BHR,Al Ezzel Power Station,962.0,26.2175,50.6595
BHR,Alba Power Station,2204.0,26.0945,50.6008
BHR,Awali,5.0,26.1,50.58
BHR,Hawar Power ad Water Station,7.3,26.1981,50.5919
BHR,Hidd Power and Water station 1,963.0,26.2223,50.6621
BHR,Rifa'a Power Station,700.0,26.1199,50.5889
BHR,Sitra Power an Water Station,1205.0,26.1833,50.6237
BGD,Amnura,50.0,24.6301,88.4006
BGD,Ashuganj (Aggreko),1649.0,24.0426,91.0158
BGD,Baghabari GT 1,223.0,24.1361,89.5933
BGD,Barabkunda (Regent),22.0,22.5713,91.6841
BGD,Barishal GT-unit-1 2,40.0,22.6588,90.3373
BGD,Barupukuria ST 1,250.0,25.5502,88.9527
BGD,Bera Peaking,71.0,24.0895,89.6176
BGD,Bheramara GT (Unit-1 2 3),560.0,24.0487,89.0173
BGD,Bhola CCPP GT-1 2 ST,227.0,22.4786,90.7101
BGD,Bogra GBB,42.0,24.8408,89.3506
BGD,CLCPC Keranigonj,100.0,23.6473,90.3473
BGD,Chittagong Roazan,553.0,22.457,91.9784
BGD,Faridpur,54.0,23.6183,89.7733
BGD,Fenchuganj (Barakatullah),296.0,24.6863,91.9189
BGD,Feni (Doreen),33.0,23.9186,90.6926
BGD,Ghorasal ST :Unit-3,861.0,23.9797,90.637
BGD,Gopalganj,5.0,26.585,84.145
BGD,Gopalganj Peaking,109.0,23.9797,90.637
BGD,Hathazari,98.0,22.4918,91.8051
BGD,Hobiganj (Confidence-EP),11.0,24.2639,91.379
BGD,Horippur Power CCPP,946.0,23.6839,90.5314
BGD,Jamalpur RPP,95.0,24.9103,89.9607
BGD,Jangalia (Summit),85.0,23.4289,91.17
BGD,Jhulda,100.0,22.2972,91.8062
BGD,Kaptai Hydro:Unit-1 2 3 4 5,230.0,22.495,92.216
BGD,Karanigonj (Powerpac),100.0,23.6783,90.4295
BGD,Katakhali (Peaking),100.0,24.366,88.6763
BGD,Kathpotti 52 mw,52.0,23.5699,90.4804
BGD,Khulna (KPCL-2),510.0,22.8646,89.5357
BGD,Kodda Gajipur,149.0,23.9904,90.3429
BGD,Madanganj (Summit),157.0,23.59,90.5153
BGD,Meghnaghat CCPP,855.0,23.6112,90.6007
BGD,Mymensingh,210.0,24.7611,90.4193
BGD,Narshingdi (Doreen),22.0,23.9186,90.6926
BGD,Noapara (khanjahan ali),40.0,22.3602,91.7812
BGD,Northen 55 MW,55.0,23.8094,90.2433
BGD,Pagla (DPA),50.0,23.6584,90.4584
BGD,Patenga 50 MW,50.0,22.2385,91.8129
BGD,Rangpur GT,20.0,25.7233,89.2432
BGD,Santahar Peaking,50.0,24.7972,88.9839
BGD,Shahjibazar 330 MW,536.0,24.2532,91.3751
BGD,Shiddirganj ST,210.0,23.6846,90.517
BGD,Shikalbaha Peaking (GT),261.0,22.3227,91.8651
BGD,Siddhirganj (Dutch Bangla),520.0,24.3884,89.7436
BGD,Siddirgonj (Desh),96.0,23.6825,90.5252
BGD,Summit Barisal 110MW,110.0,22.659,90.3364
BGD,Summit Bibiana-2,341.0,24.6358,91.6587
BGD,Summit Power  Comilla,25.0,23.44,91.1869
BGD,Summit Power  Maona,33.0,24.2276,90.4201
BGD,Summit Power (Madhabdi+Ashulia),80.0,23.8901,90.0323
BGD,Summit Power Rupgonj,33.0,23.755,90.5496
BGD,Sylhet (Energyprima),222.0,24.9096,91.83
BGD,Teknaf,28.0,20.982,92.256
BGD,Thakurgaon (RZ),47.0,26.0383,88.4256
BGD,Titas(Dautkandi),52.0,23.5461,90.7779
BGD,Tongi GT,105.0,23.897,90.4123
BGD,Ullapara (Summit),11.0,24.3071,89.5512
BLR,Bereza SDPP Thermal Power Plant Belarus,1130.0,52.4538,25.1926
BLR,Blizhnyaya Rechitsa,55.0,53.64,31.55
BLR,Blizhnyaya Rechitsa 2,109.0,53.625,31.6
BLR,Bobruisk CHP-2 Power Plant Belarus,180.0,53.1895,29.2055
BLR,Bragin EP,4.1,51.784,30.2559
BLR,Brahin,18.5,51.797,30.209
BLR,Chechevicy,11.3,52.92,30.85
BLR,Elsk,16.3,51.77,29.155
BLR,Gomel-1 CHP Power Plant Belarus,6.0,52.4141,31.0031
BLR,Gomel-2 CHP Power Plant Belarus,544.0,52.4492,30.8167
BLR,Grodno CHP-2 Power Plant Belarus,180.0,53.6675,23.9272
BLR,Lida Power Plant Belarus,43.0,53.9011,25.291
BLR,Lukoml Thermal Power Plant Belarus,2460.0,54.6803,29.1341
BLR,Minsk-3 CHP CCGT Power Plant,542.0,53.8799,27.6476
BLR,Minsk-4 CHP CCGT Power Plant,1035.0,53.872,27.4022
BLR,Minsk-5 CHP CCGT Power Plant,780.0,53.612,27.954
BLR,Mogilev CHP-2 Thermal Power Plant Ukraine,345.0,53.8128,30.3421
BLR,Mozyr Thermal Power Plant Belarus,195.0,51.9049,29.3136
BLR,Novopolotsk Thermal Power Plant Belarus,505.0,55.5265,28.549
BLR,Orsha Cogeneration CCGT Power Plant Belarus,73.0,54.4809,30.3926
BLR,Smorgon,18.7,54.41,26.48
BLR,Svetlogorsk CHP Power Plant Belarus,155.0,52.6274,29.7708
BLR,Vitebsk Thermal Power Plant Belarus,75.0,55.1689,30.1355
BLR,Zhodino CHP CCGT Power Plant,54.0,54.0941,28.3505
BEL,AALTER TJ,18.6,51.0902,3.4469
BEL,ANGLEUR TG 41,128.0,50.6177,5.5837
BEL,AWIRS 4,95.0,50.5851,5.418
BEL,Aalst Syral GT,43.0,50.936,4.0355
BEL,Aalst Syral ST,5.0,50.936,4.0355
BEL,Amercoeur 1 R TGV,451.0,50.4304,4.3955
BEL,Aspiravi Wuustwezel,22.1,51.2488,3.2166
BEL,BEERSE TJ,33.2,51.3193,4.853
BEL,BUDA TJ,18.6,50.9079,4.4155
BEL,BUTGENBACH,1.8,50.4359,6.2106
BEL,Belwind Phase 1,171.0,51.66,2.8
BEL,Beveren 2 Indaver,20.0,51.2119,4.2563
BEL,Beveren Ineos Phenolchemie,22.8,51.2119,4.2563
BEL,CIERREUX TJ,18.6,50.2444,5.9302
BEL,COO,1164.0,50.3849,5.8618
BEL,DOEL 4,2910.0,51.3254,4.2597
BEL,DROGENBOS DM 51,5.0,50.8023,4.299
BEL,DROGENBOS GT0,48.0,50.8023,4.299
BEL,DROGENBOS TGV,465.0,50.8023,4.299
BEL,Deux-Acren TJ,18.6,50.7303,3.8531
BEL,Electrawinds biomassa Oostende,17.9,51.2234,2.9119
BEL,Froidchapelle Wind,25.0,50.2233,4.32
BEL,HAM-GENT WKK,52.0,51.05,3.7167
BEL,HEID-DE-GOREUX 1,8.0,50.426,5.7328
BEL,HERDERSBRUG STEG,465.0,51.2629,3.2112
BEL,HERDERSBRUG WIND,3.0,51.2622,3.2132
BEL,HU AMPSIN-NEUVILLE,9.9,50.5335,5.2962
BEL,HU ANDENNE,9.0,50.4928,5.07
BEL,HU GRAND-MALADES,5.0,50.4665,4.8992
BEL,HU IVOZ-RAMET,10.0,50.5922,5.4613
BEL,HU LIXHE,20.0,50.7517,5.6863
BEL,HU MONSIN,19.7,50.6517,5.6308
BEL,INESCO WKK,138.0,51.2198,4.3266
BEL,IVBO,16.0,51.2089,3.2242
BEL,Incinerateur THUMAIDE (IPALLE),32.0,50.5415,3.6301
BEL,Intradel Herstal,32.0,50.6642,5.6235
BEL,Kristal,99.5,51.203,5.265
BEL,LANGERBRUGGE STORA ST 2,50.0,51.05,3.7167
BEL,LANGERLO 1,470.0,50.9405,5.4906
BEL,LANGERLO 4 REPOWERING,86.0,50.934,5.4784
BEL,La Vierre,1.9,49.733,5.377
BEL,Loghidden City,13.0,51.273,4.288
BEL,Marcinelle Energie (Carsid),405.0,50.4138,4.4067
BEL,Noordschote TJ,18.6,50.9548,2.8103
BEL,Northwind,216.0,51.6186,2.8998
BEL,PLATE TAILLE T,144.0,50.1884,4.3861
BEL,RINGVAART STEG,357.0,51.1049,3.7257
BEL,RODENHUIZE 4,268.0,51.1341,3.777
BEL,RODENHUIZE WIND,4.5,51.1357,3.7878
BEL,SAINT-GHISLAIN STEG,350.0,50.4719,3.8248
BEL,SCHELLE WIND,4.5,51.1265,4.3226
BEL,Schaerbeek Siomab ST1,45.0,50.8504,4.3488
BEL,T-power Beringen,422.0,51.0586,5.1056
BEL,TIHANGE 1N,962.0,50.5342,5.2751
BEL,TIHANGE 3,2053.8,50.5342,5.2751
BEL,Thorntonbank - C-Power - Area NE,147.6,51.556,2.9689
BEL,Thorntonbank - C-Power - Area SW,177.6,51.54,2.921
BEL,WM Park Powerport Zeebrugge,12.0,51.329,3.1819
BEL,Wilmarsdonk,3.7,51.2709,4.3812
BEL,Wilrijk Isvag,10.5,51.1673,4.3951
BEL,Windvision Estinnes WIND,80.0,50.4116,4.0804
BEL,ZEEBRUGGE WIND,12.0,51.3596,3.2219
BEL,Zedelgem TJ,18.6,51.1424,3.1368
BEL,Zeebrugge 2 Fluxys,40.0,51.329,3.1819
BEL,Zeebrugge TJ,18.6,51.329,3.1819
BEL,Zelzate 2 Knippegroen,315.0,51.1587,3.8068
BEL,Zelzate TJ,18.6,51.1896,3.8078
BEL,Zwijndrecht Lanxess GT,43.0,51.2382,4.3408
BEL,Zwijndrecht Lanxess ST,15.0,51.2382,4.3408
BEN,Akpakpa,40.5,6.3506,2.4295
BEN,Cotonou,20.0,6.4263,2.3066
BTN,Basochhu Hydroelectric Power Plant Bhutan,64.0,27.4254,89.9043
BTN,Chhukha Hydroelectric Power Plant Bhutan,336.0,27.1104,89.5313
BTN,Kurichhu Hydro-electric Power Station Bhutan,60.0,27.2162,91.2035
BTN,Rangjung Small Hydroelectric Power Plant Bhutan,2.2,27.3567,91.6497
BTN,Tala Hydroelectric Power Plant Bhutan,1020.0,27.036,89.5953
BOL,Aranjuez Power Plant Bolivia,36.7,-19.0394,-65.2697
BOL,Botijlaca Hydroelectric Power Plant Bolivia,10.6,-16.1925,-68.1405
BOL,Bulo Bulo OCGT Power Plant Bolivia,90.0,-17.2424,-64.5409
BOL,Cahua Hydroelectric Power Plant Bolivia,30.0,-16.0456,-67.9939
BOL,Carrasco OCGT Power Plant Bolivia,152.6,-17.2125,-64.5275
BOL,Chojlla Hydroelectric Power Plant Bolivia,38.4,-16.4124,-67.7725
BOL,Chururaqui Hydroelectric Power Plant Bolivia,34.0,-16.105,-68.067
BOL,Cobija,5.0,-11.025,-68.815
BOL,Corani Hydroelectric Power Plant Bolivia,54.0,-17.2122,-65.8758
BOL,Cutichucho Hydroelectric Power Plant Bolivia,24.0,-16.1425,-68.1158
BOL,El Alto (El Kenko) Power Plant Bolivia,80.42,-16.5653,-68.1811
BOL,Entre Rios Power Plant Bolivia,120.0,-21.52,-64.1714
BOL,Guaracachi CCGT Power Plant Bolivia,350.0,-17.7875,-63.1521
BOL,Harca Hydroelectric Power Plant Bolivia,30.0,-16.0784,-68.0336
BOL,Huaji Hydroelectric Power Plant Bolivia,34.0,-16.0416,-67.9566
BOL,Karachipampa Power Plant Bolivia,14.4,-19.551,-65.722
BOL,Sainani Hydroelectric Power Plant Bolivia,11.0,-16.124,-68.09
BOL,Santa Cruz Power Plant Bolivia,42.3,-17.7549,-63.1398
BOL,Santa Isabel Hydroelectric Power Plant Bolivia,93.4,-17.1916,-65.8232
BOL,Santa Rosa Hydroelectric Power Plant Bolivia,18.0,-16.1318,-68.1095
BOL,Tiquimani Hydroelectric Power Plant Bolivia,9.6,-16.2072,-68.1235
BOL,Uyuni Colcha K,50.0,-20.75,-67.65
BOL,Valle Hermoso Power Plant Bolivia,167.0,-17.4302,-66.1169
BOL,Yanacachi Norte Hydroelectric Power Plant Bolivia,51.1,-16.3887,-67.7373
BOL,Yunchara,5.6,-21.83,-65.23
BOL,Zongo Hydroelectric Power Plant Bolivia,11.0,-16.2719,-68.1227
BIH,Bocac Hydroelectric Power Plant Bosnia and Herzegovina,110.0,44.5075,17.1618
BIH,Capljina Pumped Storage Power Plant Bosnia and Herzegovina,420.0,43.0133,17.8041
BIH,Dubrovnik Hydroelectric Power Plant Bosnia and Herzegovina,216.0,42.6037,18.2357
BIH,Gacko Coal CHP Power Plant Bosnia and Herzegovina,300.0,43.1724,18.5128
BIH,Grabovica Hydroelectric Power Plant Bosnia and Herzegovina,115.0,43.5872,17.7189
BIH,Jablanica Hydroelectric Power Plant Bosnia and Herzegovina,180.0,43.6924,17.7325
BIH,Jajce I Hidroelektrana Bosnia and Herzegovina,48.0,44.3774,17.2816
BIH,Jajce II Hidroelektrana Bosnia and Herzegovin,30.0,44.4279,17.2404
BIH,Kakanj CHP Power Plant Bosnia and Herzegovina,450.0,44.0899,18.1143
BIH,Krupa Hydroelectric Power Plant Bosnia and Herzegovina,48.5,44.5624,17.135
BIH,Mostar Hydroelectric Power Plant Bosnia and Herzegovina,75.0,43.3776,17.8449
BIH,Mostarsko Blato Hydroelectric Power Plant Bosnia and Herzegovina,60.0,43.2989,17.794
BIH,Pec Mlini Hydroelectric Power Plant Bosnia and Herzegovina,30.0,43.3375,17.3261
BIH,Rama Hydroelectric Power Plant Bosnia and Herzegovina,160.0,43.747,17.6758
BIH,Salakovac Hydroelectric Power Plant Bosnia and Herzegovina,210.0,43.4478,17.8369
BIH,Trebinje I Hydroelectric Power Plant Bosnia and Herzegovina,180.0,42.7338,18.4971
BIH,Trebinje II Hydroelectric Power Plant Bosnia and Herzegovina,8.0,42.7066,18.3805
BIH,Tuzla CHP Power Plant Bosnia and Herzegovina,730.0,44.5215,18.6056
BIH,Ugljevik CHP Coal Power Plant Bosnia and Herzegovina,300.0,44.6829,18.9671
BIH,Visegrad Hydroelectric Power Plant Bosnia and Herzegovina,315.0,43.7603,19.2891
BWA,Morpule,732.0,-22.5223,27.0491
BWA,Sua Pan Soda Ash,14.0,-21.1667,27.5167
BRA,14 de Julho,100.71,-29.0648,-51.6749
BRA,3M Itapetininga,3.84,-23.5927,-48.0901
BRA,3M Sumaré,6.4,-22.8152,-47.1781
BRA,AJ Rorato,2.19,-23.9277,-52.4869
BRA,ALLIANZ PARQUE,3.8744,-23.5218,-46.6691
BRA,AMBEV - João Pessoa,1.35,-7.111,-34.8536
BRA,ANHANGUERA EDUCACIONAL SA - CAMPO GRANDE,2.16,-20.4633,-54.5918
BRA,AREVALE,2.0,-22.8877,-45.3275
BRA,ARS,6.66,-13.0992,-54.8189
BRA,AVG I-II,4.8,-19.4632,-44.2871
BRA,Abatedouro São Salvador,3.688,-16.0044,-49.7867
BRA,Abranjo I,4.86,-30.7944,-52.6272
BRA,Abrasa,1.46,-26.7712,-52.1902
BRA,Abunã,3.18,-9.6868,-65.3633
BRA,Adria,2.04,-21.251,-48.3125
BRA,Adriana Agrícola,1.46,-16.9399,-53.5185
BRA,Aeroporto Internacional Eduardo Gomes,1.008,-3.0293,-60.0239
BRA,Aeroporto Internacional Pinto Martins - Terminal de Passageiros (TPS-1),1.08,-3.7737,-38.5321
BRA,Aeroporto Internacional Salgado Filho,2.704,-30.029,-51.2205
BRA,Aeroporto Internacional Tancredo Neves,2.2,-19.6371,-43.9625
BRA,Aeroporto Internacional de Brasília,2.42,-15.8627,-47.9072
BRA,Aeroporto Internacional de Congonhas - São Paulo,2.273,-23.6234,-46.6464
BRA,Aeroporto Internacional de Rio Branco,1.032,-9.8627,-67.8905
BRA,Aeroporto Internacional de Salvador,2.023,-12.9041,-38.3153
BRA,Aeroporto Internacional de São Paulo/Guarulhos-Central Elétrica de Emergência CEE,9.6,-23.4293,-46.4571
BRA,Aeroporto Internacional de Viracopos - Campinas,3.865,-23.0029,-47.1249
BRA,Aeroporto Internacional do Recife,2.368,-8.1297,-34.9085
BRA,Agostinho Rodrigues,1.3005,-20.2617,-43.7981
BRA,Agro Trafo,14.683,-11.675,-46.6722
BRA,Agroalcool,1.2,-20.6583,-49.8415
BRA,Agropéu,21.6,-19.2517,-44.985
BRA,Agrovale,14.0,-9.4938,-40.3564
BRA,Agudo,3.9,-27.5247,-51.5067
BRA,Agudos Ambev,4.8,-22.465,-48.9785
BRA,Aguti,3.893,-27.3156,-49.0858
BRA,Ahlstrom,1.3,-23.082,-46.9415
BRA,Aimorés,330.0,-19.4983,-41.0236
BRA,Ala Polo,1.456,-23.6461,-46.6386
BRA,Albano Machado,3.0,-27.4967,-52.8036
BRA,Albatroz,4.8,-6.5475,-34.968
BRA,Albertina,4.25,-21.0335,-47.9605
BRA,Albrás,4.96,-1.502,-48.6165
BRA,Alcoa Beneficiamento,9.828,-2.506,-56.1625
BRA,Alcoa Porto,5.644,-2.172,-56.1635
BRA,Alcomira,2.4,-21.1971,-51.2083
BRA,Alcon,11.2,-18.4533,-39.9358
BRA,Alcon Laboratórios do Brasil,1.265,-23.5435,-46.6266
BRA,Alcoolvale,4.2,-20.0833,-51.2895
BRA,Alcídia,38.1,-22.3457,-52.5145
BRA,Alecrim,72.0,-24.0814,-47.5067
BRA,Alegre,2.056,-20.7672,-41.5306
BRA,Alegria I,51.0,-5.0944,-36.3629
BRA,Alegria II,100.65,-5.1243,-36.3833
BRA,Alhandra,6.3,-7.2731,-34.9344
BRA,Almirante Álvaro Alberto - Unidade I (Antiga Angra I),640.0,-23.0087,-44.4574
BRA,Almirante Álvaro Alberto - Unidade II (Antiga Angra II),1350.0,-23.0072,-44.4588
BRA,Alta Floresta,5.0,-11.9319,-62.0425
BRA,Alta Mogiana,75.0,-20.4819,-47.8662
BRA,Altero Design,2.032,-29.6341,-50.9975
BRA,Alterosa,8.0,-19.8563,-44.5989
BRA,Alto Benedito Novo,2.544,-26.7819,-49.3972
BRA,Alto Benedito Novo I,15.0,-26.7667,-49.4333
BRA,Alto Brejaúba,1.35,-18.9011,-42.446
BRA,Alto Fêmeas I,10.649,-12.45,-45.2
BRA,Alto Irani,21.0,-27.0094,-52.4303
BRA,Alto Jatapu,5.0,0.9,-59.3333
BRA,Alto Paraguai (Pedro Pedrossian),1.68,-14.5069,-56.4025
BRA,Alto Sucuriú,29.0,-19.245,-52.8994
BRA,Altos,13.12,-5.0321,-42.4358
BRA,Alumar,75.2,-2.7028,-44.3415
BRA,Alunorte,103.854,-1.5374,-48.723
BRA,Alvarães,3.18,-3.2293,-64.7739
BRA,Alvorada,8.0,-21.3049,-46.8541
BRA,Alvorada,8.0,-14.1852,-42.5911
BRA,Amador Aguiar I (Antiga Capim Branco I),243.675,-18.7903,-48.1472
BRA,Amador Aguiar II (Antiga Capim Branco II),210.0,-18.6597,-48.4353
BRA,Amandina,120.0,-22.4341,-53.5685
BRA,Amapá Garden Shopping,4.6000000000000005,0.0124,-51.072
BRA,Amaturá,1.92,-3.3668,-68.1866
BRA,Ambient,1.5,-21.1008,-47.8035
BRA,Americana,30.0,-22.699,-47.2842
BRA,Ametista,28.56,-14.172,-42.7002
BRA,Amparo,22.5,-26.6183,-51.5646
BRA,Anagé,1.0,-14.6286,-41.1889
BRA,Anamã,1.299,-3.5514,-61.4128
BRA,Angelina (Antiga Portobello - Corredeira do Encano),26.29,-27.4547,-48.9828
BRA,Angical,12.95,-14.3461,-42.6137
BRA,Angélica,96.0,-22.1522,-53.7618
BRA,Anhanguera,22.68,-20.4667,-47.8667
BRA,Anna Maria,1.68,-21.4858,-43.4539
BRA,Anori,2.742,-3.7068,-61.6518
BRA,Antunes,1.0,-27.6497,-51.195
BRA,Antônio Brennand (Antiga  Alto Jauru),21.96,-15.0472,-58.7517
BRA,Antônio Dias,1.35,-19.6047,-42.8583
BRA,Antônio Viel,2.9028,-27.2714,-51.5481
BRA,Aparecida Parte I,240.74,-3.1257,-60.0233
BRA,Aparecida Parte II,8.4,-3.1257,-60.0233
BRA,Aparecida Parte III,2.4,-3.1257,-60.0281
BRA,Apiacás,3.148,-9.5527,-57.3722
BRA,Apiaí,1.0,-24.4789,-49.0636
BRA,Apodi,120.0,-5.06,-37.755
BRA,Apolônio Sales (Antiga Moxotó),400.0,-9.3575,-38.2083
BRA,Aporé,1.0,-18.6805,-52.5842
BRA,Apuí,5.0,-7.1985,-59.8775
BRA,Aquarius,4.2,-17.6167,-54.9167
BRA,Aquibatã,30.0,-26.5848,-51.7532
BRA,Aracati,11.48,-4.5491,-37.7605
BRA,Aracruz,210.4,-19.843,-40.0747
BRA,Araguaia Shopping,2.4,-16.639,-49.2653
BRA,Araguassu,1.2,-10.874,-51.6235
BRA,Aralco,4.8,-20.9045,-50.4015
BRA,Araras DPA,1.28,-22.3661,-47.3713
BRA,Araras Nescafé,1.052,-22.3622,-47.3715
BRA,Aratuá I,14.4,-5.0919,-36.3377
BRA,Araucária,484.15,-25.5843,-49.3464
BRA,Areal,18.0,-22.2333,-43.0833
BRA,Areal,5.14917,-22.1561,-44.0875
BRA,Areia,11.4,-11.6986,-46.7361
BRA,Areia Branca,27.3,-4.9686,-36.9009
BRA,Areia Branca,19.8,-19.5761,-41.8028
BRA,Arembepe (Antiga Camaçari Pólo de Apoio I),150.0,-12.6863,-38.2925
BRA,Arizona 1,28.0,-5.3042,-35.382
BRA,Arroio Trinta,1.0,-26.88,-51.2797
BRA,Arrudas,2.4,-19.8953,-43.8783
BRA,Artivinco (Antiga Rio Pardo),4.5,-21.4998,-47.3568
BRA,Arturo Andreoli (Antiga Júlio de Mesquita Filho),29.072,-25.5681,-53.0742
BRA,Arvoredo,13.0,-27.0667,-52.4833
BRA,Asa Branca I,27.0,-5.2323,-35.8266
BRA,Asa Branca II,27.0,-5.2286,-35.8808
BRA,Asa Branca III,27.0,-5.2551,-35.8436
BRA,Asa Branca IV,32.0,-5.3291,-35.9916
BRA,Asa Branca V,32.0,-5.3828,-36.0088
BRA,Asa Branca VI,32.0,-5.3596,-35.9987
BRA,Asa Branca VII,32.0,-5.2529,-35.943
BRA,Asa Branca VIII,32.0,-5.2812,-35.9804
BRA,Asfor,3.35,-3.7817,-38.5182
BRA,Asja BH,4.2780000000000005,-19.813,-43.9465
BRA,Aspebras Bahia,1.64,-12.7641,-38.3913
BRA,Assembleia Paraense,1.524,-1.413,-48.4363
BRA,Assis Brasil - TECG,2.2,-10.9428,-69.5747
BRA,Assis Chateaubriand(Antiga Salto Mimoso),29.5,-20.6753,-53.5676
BRA,Associação Pró-Ensino Novo Hanburgo,1.944,-29.6743,-51.1211
BRA,Assu V,30.0,-5.555,-37.015
BRA,Assuruá II,30.0,-11.1573,-42.6791
BRA,Assuruá V,20.0,-11.1967,-42.6949
BRA,Assuruá VII,18.0,-11.1674,-42.7
BRA,Atacadão Ipiranga,1.08,-23.5773,-46.5918
BRA,Atacadão Jacui,1.0,-23.492,-46.4467
BRA,Atacadão Matriz,1.48,-23.5252,-46.5762
BRA,Atacadão SA Brasilia,1.08,-15.7318,-47.8961
BRA,Atacadão SA Cuiaba Porto,1.2,-15.6109,-56.0933
BRA,Atacadão SA Taguatinga,1.12,-15.7942,-47.8822
BRA,Atalaia,4.6000000000000005,-10.907,-37.0625
BRA,Atalaia do Norte,1.52,-4.3316,-70.1461
BRA,Atlântica,4.8,-6.5474,-34.9737
BRA,Atlântica I,30.0,-30.3188,-50.3161
BRA,Atlântica II,30.0,-30.3265,-50.3234
BRA,Atlântica IV,30.0,-30.2919,-50.335
BRA,Atlântica V,30.0,-30.2915,-50.305
BRA,Atos,3.0,-9.8679,-57.8132
BRA,Aura Mangueira XI,9.0,-33.0519,-52.8587
BRA,Aura Mangueira XII,15.0,-33.1318,-52.9938
BRA,Aura Mangueira XIII,15.0,-33.079,-52.8855
BRA,Aura Mangueira XV,18.0,-33.142,-52.9626
BRA,Aura Mirim IV,15.0,-33.0511,-52.9371
BRA,Aureliano Chaves (Antiga Ibirité),226.0,-19.9866,-44.0889
BRA,Autazes,6.042,-3.5755,-59.1233
BRA,Autódromo,24.0,-28.8258,-51.8414
BRA,Avelar,1.0,-22.2939,-43.4181
BRA,Açominas,102.89,-20.5355,-43.6986
BRA,BASF ANC,1.0,-23.6832,-46.5575
BRA,BASF DEM,2.2224,-23.7455,-46.5528
BRA,BASF IND,1.028,-23.1388,-47.2372
BRA,BASF JAC,1.12,-23.2702,-45.9644
BRA,BAXTER,2.0,-23.6768,-46.6822
BRA,BEN Bioenergia,53.0,-9.9125,-36.3245
BRA,BENVETEX TEXTIL,1.84,-26.8842,-49.2004
BRA,BIGFER FIXADORES,1.2,-29.2243,-51.3489
BRA,BIGFER MATRIZ,1.4784000000000002,-29.2271,-51.3486
BRA,BJL ENEL,158.0,-12.597,-44.107
BRA,BOULEVARD BELÉM,4.44,-1.4518,-48.495
BRA,BSA SU,2.144,-15.7924,-47.8797
BRA,BT LATAM - HORTOLANDIA,2.1744000000000003,-22.8967,-47.2036
BRA,Bagre,1.222,-1.8932,-50.2016
BRA,Baguari,140.544,-19.022,-42.123
BRA,Bahia I - Camaçari,31.8,-12.6616,-38.3255
BRA,Bahia Pulp (Antiga Bacell),108.6,-12.6389,-38.3275
BRA,Baixa do Feijão I,30.0,-5.3698,-36.0317
BRA,Baixa do Feijão II,30.0,-5.3022,-36.0381
BRA,Baixa do Feijão III,30.0,-5.3449,-36.04
BRA,Baixa do Feijão IV,30.0,-5.322,-36.0606
BRA,Baixada Fluminense,530.0,-22.7183,-43.6335
BRA,Balbina,249.75,-1.9158,-59.4733
BRA,Baldin,45.0,-21.9833,-47.4404
BRA,Bambuí,30.0,-20.0826,-46.0278
BRA,Banco Santander Brasil,1.8,-23.5435,-46.6265
BRA,Banda de Couro,32.9,-9.8288,-41.0624
BRA,Bandeirante,3.0,-26.7994,-53.6667
BRA,Bandeirantes,4.624,-23.4158,-46.7464
BRA,Bangu Shopping 2,2.0544,-22.8749,-43.4578
BRA,Baraúnas I,32.9,-9.8868,-41.1203
BRA,Baraúnas II,25.85,-9.8412,-41.1037
BRA,Barbosa Lima Sobrinho (Antiga Eletrobolt),375.12,-22.7155,-43.6378
BRA,Barcelos,4.26,-0.963,-62.9241
BRA,Bariri (Álvaro de Souza Lima),136.8,-22.1533,-48.7525
BRA,Barra,5.2,-25.7667,-52.0833
BRA,Barra,40.4,-24.0242,-47.3556
BRA,Barra Bioenergia,136.0,-22.474,-48.5225
BRA,Barra Bonita,140.76,-22.5194,-48.5344
BRA,Barra Escondida,2.25,-26.9039,-53.0297
BRA,Barra Grande,698.25,-27.7769,-51.1933
BRA,Barra Grande de Lençóis,62.9,-22.6213,-48.7473
BRA,Barra da Paciência,23.0,-18.95,-42.6
BRA,Barra do Braúna,39.0,-21.45,-42.4
BRA,Barra do Rio Chapéu,15.15,-28.0678,-49.1508
BRA,Barra dos Coqueiros,90.0,-18.7233,-51.0031
BRA,Barra dos Coqueiros,34.5,-10.81,-36.9293
BRA,Barralcool,30.0,-15.0282,-57.2014
BRA,Barulho,1.32,-21.9983,-44.4039
BRA,Basf Guaratinguetá,3.0500000000000003,-22.7766,-45.1595
BRA,Basílica Nossa Senhora da Conceição Aparecida,1.296,-22.843,-45.2205
BRA,Batalha (Antiga Paulista),52.5,-17.35,-47.4833
BRA,Batatais,3.9,-20.7537,-47.5664
BRA,Batista,2.704,-23.8397,-47.6531
BRA,Baturité,11.48,-4.3246,-38.8755
BRA,Bayer,3.84,-23.544,-46.6265
BRA,Bazan,10.2,-21.0061,-47.9836
BRA,Baía Formosa,40.0,-6.4123,-35.0462
BRA,Bebidas Ipiranga,3.75,-21.1426,-47.8215
BRA,Bela União (Trincheira),2.25,-27.7808,-54.3734
BRA,Bela Vista,9.8,-20.9362,-48.0708
BRA,Belmonte,3.6,-26.8333,-53.6667
BRA,Belo Jardim,43.839,-10.0055,-67.7205
BRA,Belo Monte,3327.45544,-3.1264,-51.775
BRA,Bem Brasil,2.125,-19.5641,-46.8975
BRA,Benjamim Mário Baptista (Antiga Nova Sinceridade),9.0,-20.2139,-41.9889
BRA,Benjamin Constant,5.1000000000000005,-4.3521,-70.0258
BRA,Benálcool,4.2,-21.2276,-50.7655
BRA,Bergamais,1.92,-23.4735,-46.6361
BRA,Bergamini,2.72,-23.5435,-46.6266
BRA,Berneck,12.0,-25.5382,-49.3615
BRA,Bertussi,1.0,-28.8669,-50.939
BRA,Biancogrês,5.11,-20.125,-40.2985
BRA,Big Umuarama,1.0,-23.6758,-53.4052
BRA,Bimbo,1.016,-29.9405,-50.9825
BRA,Bimbo do Brasil,1.48,-23.5435,-46.6266
BRA,Bio Alvorada,50.0,-18.4371,-49.1806
BRA,Bio Coopcana,50.0,-23.2655,-52.4761
BRA,Bio Fuel,4.8,0.9637,-59.9464
BRA,Bioenergética Aroeira,16.0,-18.7515,-48.6035
BRA,Bioenergética Vale do Paracatu - BEVAP,55.0,-17.0582,-46.1741
BRA,Bioflex Caeté,62.5,-9.773,-36.0759
BRA,Biolins,28.0,-21.6724,-49.7711
BRA,Biopav II,65.0,-21.2097,-50.1895
BRA,Biotérmica Recreio,8.556000000000001,-30.1468,-52.0165
BRA,Blanver Cogeração,2.0,-23.5316,-46.9603
BRA,Blue Tree Park Angra dos Reis,2.0,-23.003,-44.3085
BRA,Boa Esperança (Antiga Castelo Branco),237.3,-6.752,-43.5641
BRA,Boa Fé,24.0,-28.7527,-51.8436
BRA,Boa Sorte,16.0,-11.8803,-46.7717
BRA,Boa Vista,80.0,-18.5423,-50.4335
BRA,Boa Vista II,8.0,-24.9229,-51.3963
BRA,Boa Vista do Ramos,2.062,-2.9649,-57.5786
BRA,Boca do Acre,11.3,-8.7641,-67.3094
BRA,Boca do Córrego,24.3,-3.0984,-39.6663
BRA,Bocaiúva,30.0,-12.5303,-57.8808
BRA,Bom Jardim,30.0,-28.4403,-49.5703
BRA,Bom Jesus,3.2,-8.2781,-35.0286
BRA,Bom Retiro,3.6,-22.8693,-47.444
BRA,Bom Sucesso,1.5,-18.0145,-49.7824
BRA,Bompreço Fortaleza,1.12,-3.7132,-38.5336
BRA,Bompreço Maceió,1.0,-9.6618,-35.7258
BRA,Bompreço Passo Fundo,1.0,-28.2588,-52.3972
BRA,Bonfante,19.0,-22.0089,-43.2653
BRA,Bons Ventos,50.0,-4.4472,-37.7596
BRA,Boqueirão,1.0,-7.4878,-36.1386
BRA,Borgo,20.16,-14.5084,-42.5867
BRA,Bortolo Carolo,8.0,-20.9967,-48.0154
BRA,Brahma,13.08,-22.9192,-43.4408
BRA,Branco Peres,3.98,-21.4838,-51.0189
BRA,Brasil Verde,1.2,-19.749,-44.8875
BRA,Brasilgráfica,1.2,-23.507,-46.8665
BRA,Braskem PVC-AL,2.9,-9.6746,-35.9565
BRA,Brasília,10.0,-15.7968,-47.9403
BRA,Braço,11.52,-22.7833,-44.2333
BRA,Braço Norte,5.18,-9.8322,-55.0153
BRA,Braço Norte II,10.752,-9.7833,-54.9833
BRA,Braço Norte III,14.16,-9.6667,-54.9667
BRA,Braço Norte IV,14.0,-9.6833,-54.9667
BRA,Braço Seco,1.0,-21.6078,-45.4239
BRA,Brecha,12.4,-20.5458,-42.9625
BRA,Brejauba,1.35,-18.9114,-42.44
BRA,Brotas,70.0,-22.3465,-48.0965
BRA,Brumado,12.895,-14.196,-41.6572
BRA,Bruno Heidrich,1.0854,-27.0986,-50.13
BRA,Budai,1.0704,-23.5235,-46.893
BRA,Buettner,3.6,-27.094,-48.908
BRA,Bugres,11.12,-29.3464,-50.7016
BRA,Buricá,1.4,-27.925,-54.0792
BRA,Buriti,30.0,-2.8853,-39.9839
BRA,Buriti,30.0,-19.3333,-52.6667
BRA,Buriti,75.0,-20.2147,-47.6444
BRA,Buriti,5.0,-20.2143,-47.6439
BRA,Buritirana,1.12,-11.9272,-46.2972
BRA,Byk,2.0,-22.702,-46.9765
BRA,CAAL,3.825,-29.7825,-55.7695
BRA,CAE South,1.016,-23.4628,-46.5333
BRA,CAMPINAS - 1,1.12,-22.9111,-47.0964
BRA,CARBOFER,1.104,-20.1602,-44.9091
BRA,CARGILL AGRICOLA SA CNPJ: 60.498.706/0130-54,1.08,-18.3519,-49.2197
BRA,CAS-BC,1.944,-22.9044,-47.0625
BRA,CATERPILLAR 2500KVA 3412 UNIDADE CAMPO DO MEIO,2.0,-21.8438,-46.4923
BRA,CATIVA I,1.2,-27.0016,-49.3639
BRA,CATUAÍ MARINGÁ,2.8000000000000003,-23.4163,-51.9611
BRA,CD Cordeirópolis,1.44,-22.4888,-47.3903
BRA,CECOL,1.0992000000000002,-22.478,-47.4472
BRA,CEM (Antiga Camen),24.0,-17.9237,-49.1895
BRA,CENPES - Petrobrás,16.065,-22.899,-43.1985
BRA,CERÂMICA PORTO FERREIRA,3.264,-21.8499,-47.4697
BRA,CEUMA - ASSOCIAÇÃO DE ENSINO SUPERIOR,1.524,-2.5268,-44.2972
BRA,CIF Mineração,3.6,-21.7551,-42.5483
BRA,CINAL/TRIKEM,3.1875,-9.706,-35.8855
BRA,CINDACTA IV,2.5,-3.0574,-60.077
BRA,CMPC (Antiga Aracruz Unidade Guaíba),250.994,-30.1293,-51.2975
BRA,CNH Alvorada do Oeste,6.74,-11.335,-62.2767
BRA,CNH Buritis,18.0,-10.2125,-63.8294
BRA,CNH Campo Novo,3.52,-10.5681,-63.6072
BRA,CNH Costa Marques,6.74,-12.4342,-64.2225
BRA,CNH Cujubim,12.0,-9.3633,-62.5856
BRA,CNH Distrito de Triunfo,8.6,-9.2851,-63.1306
BRA,CNH Machadinho,15.0,-9.4164,-61.9947
BRA,CNH Nova Califórnia,4.84,-9.7378,-66.6061
BRA,CNH São Francisco,8.1,-12.0406,-63.5722
BRA,CNH União Bandeirantes,6.72,-9.7008,-64.5192
BRA,CNH Vale do Anari,4.84,-9.8639,-62.1658
BRA,CNH Vila Extrema,4.84,-9.7719,-66.3425
BRA,CNH Vista Alegre,9.2,-9.6469,-65.725
BRA,CNT,36.0,-14.3432,-48.4308
BRA,COCAM CIA DE CAFÉ SOLÚVEL E DERIVADOS,2.24,-21.1268,-48.9628
BRA,CONCESSIONARIA AEROPORTO RIO DE JANEIRO SA,3.2,-22.8061,-43.2582
BRA,CONDOMINIO EDIFICIO SHOPPING PATIO MACEIO,2.6,-9.5546,-35.7366
BRA,CONDOMINIO SAO CONRADO FASHION MALL,1.1,-22.9924,-43.25
BRA,CONDOMINIO VOLUNTARIO VIA VERDE SHOPPING CENTER,1.7592,-9.9818,-67.8383
BRA,COSIMAT,2.0,-19.5488,-44.0664
BRA,CRV,4.0,-15.3429,-49.72
BRA,CST,225.1,-20.125,-40.2985
BRA,CTA-MR,2.016,-25.4233,-49.2803
BRA,CTE Fibra,8.812,-22.696,-47.3422
BRA,CTR Juiz de Fora,4.2780000000000005,-21.6187,-43.4217
BRA,Caa-Yari,1.0,-27.4292,-54.1206
BRA,Caapiranga,1.299,-3.3255,-61.2016
BRA,Caarapó,114.0,-22.6105,-54.6848
BRA,Cabeça de Boi,30.0,-10.3542,-56.985
BRA,Cabixi,2.7,-12.9567,-60.1247
BRA,Cabixi II,2.8000000000000003,-13.0194,-60.1128
BRA,Cabo de Santo Agostinho,2.0,-8.283,-35.0255
BRA,Caboclo,4.16,-20.495,-43.4828
BRA,Cabot Mauá,7.0,-23.6367,-46.4621
BRA,Cabrera,25.0,-19.3074,-50.7083
BRA,Cachoeira,11.12,-12.4922,-60.4717
BRA,Cachoeira,7.4,-9.4383,-35.724
BRA,Cachoeira Caldeirão,219.0,0.8533,-51.2917
BRA,Cachoeira Dourada,658.0,-18.5025,-49.4931
BRA,Cachoeira Dourada,40.0,-18.4945,-49.6445
BRA,Cachoeira Paulista,1.0,-22.7486,-44.9056
BRA,Cachoeira Poço Preto I,3.564,-24.0381,-49.4617
BRA,Cachoeira Poço Preto II,2.098,-24.0479,-49.4578
BRA,Cachoeira da Lixa,14.8,-17.0742,-40.0683
BRA,Cachoeira do Brumado,2.34,-21.8528,-43.8886
BRA,Cachoeira do Lavrinha (Antiga São Patrício),3.01,-15.5161,-49.4847
BRA,Cachoeirinha,1.25,-22.57,-46.41
BRA,Cachoeirinha,1.0,-26.7706,-52.1786
BRA,Cachoeirão,27.0,-19.4367,-41.6142
BRA,Cacimbas 1,18.9,-3.2532,-39.2809
BRA,Caconde,80.4,-21.5767,-46.6242
BRA,Cadam,24.992,0.3843,-53.954
BRA,Caetité,30.24,-14.1272,-42.5471
BRA,Caetité 1,30.0,-14.1632,-42.4845
BRA,Caetité 2,30.0,-14.185,-42.503
BRA,Caetité 3,30.0,-14.2194,-42.507
BRA,Caetité A,23.8,-14.1415,-42.4783
BRA,Caetité B,22.1,-14.1146,-42.4749
BRA,Caetité C,8.5,-14.1082,-42.4746
BRA,Caititu,22.2,-14.4528,-42.641
BRA,Caixão,1.172,-20.0569,-44.6089
BRA,Caju,3.2,-26.9517,-52.4594
BRA,Caju,10.0,-21.8958,-42.0791
BRA,Cajucoco,30.0,-2.9159,-39.9544
BRA,Cajuru,7.2,-20.2394,-44.7539
BRA,Calango 1,30.0,-6.0339,-36.544
BRA,Calango 2,30.0,-6.0166,-36.4835
BRA,Calango 3,30.0,-6.0489,-36.546
BRA,Calango 4,30.0,-6.0236,-36.472
BRA,Calango 5,30.0,-6.0303,-36.488
BRA,Calango 6,30.0,-6.0132,-36.4499
BRA,Calheiros,19.0,-20.9847,-41.71
BRA,Calçados Azaléia,7.5,-15.245,-40.2385
BRA,Calçoene,1.296,2.502,-50.9395
BRA,Camargos,46.0,-21.3256,-44.6161
BRA,Camaçari,130.71,-12.694,-38.3145
BRA,Camaçari,346.803,-12.5975,-38.2732
BRA,Cambará,3.59,-15.9697,-55.0883
BRA,Camera Ijui,1.104,-28.4317,-53.878
BRA,Camera Santa Rosa,3.12,-27.8548,-54.4707
BRA,Camera São Luiz Gonzaga,1.6,-28.4007,-54.9626
BRA,Camil Alimentos - Camaquã,4.0,-30.8189,-51.7039
BRA,Caminho da Praia,2.0,-8.3344,-35.0053
BRA,Campina Grande,169.08,-7.2307,-35.89
BRA,Campo Belo,10.5,-26.6123,-51.7401
BRA,Campo Florido,30.0,-19.8091,-48.7255
BRA,Campo Lindo,25.0,-10.4681,-37.1815
BRA,Campo Maior,13.12,-4.8424,-42.1836
BRA,Campo Real,1.0,-25.4175,-51.7514
BRA,Campo dos Ventos I,25.2,-5.345,-35.9428
BRA,Campo dos Ventos II,30.0,-5.3201,-35.9322
BRA,Campo dos Ventos III,25.2,-5.3356,-35.9669
BRA,Campo dos Ventos V,25.2,-5.2931,-35.9479
BRA,Campos (Antiga Roberto Silveira),30.0,-21.7155,-41.3285
BRA,Campos Novos,880.0,-27.6017,-51.3169
BRA,Camurim,4.8,-6.5576,-34.9721
BRA,Cana Brava,450.0,-13.3992,-48.1425
BRA,Canabrava,44.0,-21.6491,-41.3957
BRA,Canastra,42.5,-29.3934,-50.7465
BRA,Canatiba Tupis,2.7,-22.7731,-47.366
BRA,Canaã,30.0,-22.9258,-47.5567
BRA,Canaã,17.0,-9.9439,-63.0642
BRA,Candiba,9.6,-14.1831,-42.6227
BRA,Candiota III,350.0,-31.5458,-53.6566
BRA,Canoa Quebrada,28.0,-12.7833,-56.0
BRA,Canoa Quebrada,57.0,-4.4671,-37.7577
BRA,Canoas I,82.5,-22.9414,-50.5169
BRA,Canoas II,72.0,-22.9361,-50.2497
BRA,Cantú 2,19.8071,-24.7458,-52.4681
BRA,Capigui,3.76,-28.352,-52.204
BRA,Capivara (Escola de Engenharia Mackenzie),619.0,-22.658,-51.3598
BRA,Capivari,18.09,-28.1156,-48.966
BRA,Capricho,2.4,-9.3335,-36.1501
BRA,Capuava,18.02,-23.66,-46.5285
BRA,Capão Preto,4.3,-21.85,-47.7833
BRA,Capão do Inglês,10.0,-30.9163,-55.7084
BRA,Caracaraí,10.956,1.8265,-61.1136
BRA,Caramuru Sorriso,9.696,-12.7418,-55.6773
BRA,Carandaí,4.234,-21.0556,-44.2094
BRA,Carangola,15.0,-20.7019,-42.0394
BRA,Carauari,5.456,-5.1149,-67.3281
BRA,Caravela,4.8,-6.556,-34.969
BRA,Carcará I,30.0,-4.9438,-36.9918
BRA,Carcará II,30.0,-4.9457,-37.0036
BRA,Careiro da Várzea,2.5,-3.1938,-59.7647
BRA,Cargil Três Lagoas,6.0,-20.7978,-51.6318
BRA,Cargill Uberlândia,25.0,-18.8483,-48.2765
BRA,Carioca Shopping,3.2,-22.899,-43.1985
BRA,Carlos Gonzatto,9.0,-27.6206,-53.8047
BRA,Carrefour - RPN,1.44,-21.1593,-47.8055
BRA,Carrefour - SON,1.44,-23.4861,-47.4719
BRA,Carrefour BGU,1.08,-23.4643,-46.5122
BRA,Carrefour CPS,1.44,-22.8496,-47.0178
BRA,Carrefour SAV,1.44,-23.9632,-46.36
BRA,Carrefour SPT,1.44,-23.5188,-46.5914
BRA,Casa de Força,7.92,-20.2304,-50.3345
BRA,Casa de Geradores de Energia Elétrica F-242,9.0,-23.0951,-45.822
BRA,Casca II,3.52,-15.3636,-55.4453
BRA,Casca III,12.42,-15.3576,-55.4553
BRA,Cascata,6.0,-26.5889,-51.7427
BRA,Cascata Chupinguaia,9.6,-12.7139,-60.8717
BRA,Cascata das Andorinhas,1.2,-27.35,-52.7667
BRA,Castaman I (Antiga Enganado),1.844,-13.0839,-60.6222
BRA,Castaman III,1.48,-13.1517,-60.6567
BRA,Castelo Branco Office Park,2.025,-23.5066,-46.8666
BRA,Castro Alves,130.845,-29.0083,-51.3792
BRA,Catanduva,9.0,-21.1254,-48.8248
BRA,Catanduva (Antiga Cerradinho),75.0,-21.0966,-48.9335
BRA,Catas Altas I,4.0,-24.5972,-49.135
BRA,Caterpillar,11.48,-22.7033,-47.6246
BRA,Catuai Shopping Center Londrina,2.8992,-29.1742,-51.2178
BRA,Caucaia,14.76,-3.7327,-38.6434
BRA,Caveiras,3.829,-27.8156,-50.4803
BRA,Cavernoso,1.26,-25.4936,-52.2128
BRA,Cavernoso II,19.008,-25.4933,-52.225
BRA,Cazuza Ferreira,9.1,-29.0167,-50.7167
BRA,Caçador,22.5,-28.7055,-51.8506
BRA,Caçu,65.0,-18.5294,-51.15
BRA,Caçú I,130.0,-18.6013,-51.1913
BRA,Ceasa-PE,1.6,-8.0668,-34.9225
BRA,Cebrace Barra Velha,2.7528,-26.6347,-48.7047
BRA,Cebrace Caçapava,4.0,-23.1314,-45.7531
BRA,Cebrace Jacarei,2.4,-23.2847,-45.9417
BRA,Cedasa,3.567,-22.453,-47.5205
BRA,Celpav II,32.6,-21.5487,-47.7725
BRA,Celpav IV,139.424,-23.2949,-45.981
BRA,Celso Furtado (Antiga Termobahia Fase I),185.891,-12.7038,-38.5669
BRA,Celso Ramos,5.6000000000000005,-26.7578,-52.2578
BRA,Celulose Irani,4.9,-26.9416,-51.7466
BRA,Cencosud - GBarbosa - 153,1.0,-12.9159,-38.4431
BRA,Cencosud - GBarbosa - 31,1.44,-12.9792,-38.4697
BRA,Cencosud - GBarbosa - 35,1.08,-12.9914,-38.4486
BRA,Cencosud - GBarbosa - 6,1.08,-10.9414,-37.0581
BRA,Cencosud - GBarbosa - 81,1.08,-9.6312,-35.6999
BRA,Cencosud - GBarbosa - 84,1.08,-9.6489,-35.7058
BRA,Cencosud - M. Rodrigues - 10,1.2,-12.9006,-38.3326
BRA,Cencosud - M. Rodrigues - 607,1.2,-9.4253,-40.5055
BRA,Cencosud - M. Rodrigues - 806,1.2,-10.9386,-37.0828
BRA,Cenibra,100.0,-19.216,-42.4745
BRA,Center Shopping Uberlândia,2.1792,-18.91,-48.2594
BRA,Central Energética Ribeirão Preto (Antiga Galo Bravo),9.0,-21.1112,-47.8166
BRA,Central GH Engenheiro Bernardo Figueiredo,2.25,-22.7392,-46.9075
BRA,Central I,1.557,-26.9197,-50.4114
BRA,Central Mineirão,1.4184,-19.8656,-43.9711
BRA,Central Olho D Água,25.0,-7.4176,-35.2441
BRA,Central Termelétrica de Geração (Antiga Forjasul),1.8,-30.54,-52.5125
BRA,Central de Cogeração Shopping Caxias,1.3,-22.7818,-43.3025
BRA,Centro Administrativo Farroupilha,1.041,-30.029,-51.2205
BRA,Centro Oeste Iguatemi,4.0,-23.1627,-54.3845
BRA,Cepasa,5.0,-8.1096,-35.0039
BRA,Cerradão,54.0,-19.9183,-49.1458
BRA,Cerro Chato I (Antiga Coxilha Negra V),30.0,-30.8407,-55.7251
BRA,Cerro Chato II (Antiga Coxilha Negra VI),30.0,-30.8485,-55.6856
BRA,Cerro Chato III (Antiga Coxilha Negra VII),30.0,-30.8018,-55.7142
BRA,Cerro Chato IV,10.0,-30.8327,-55.7558
BRA,Cerro Chato V,12.0,-30.7957,-55.7556
BRA,Cerro Chato VI,24.0,-30.783,-55.6906
BRA,Cerro dos Trindade,8.0,-30.8512,-55.7527
BRA,Cervejaria Petrópolis,4.352,-22.31,-42.8644
BRA,Cervejaria Petrópolis - Alagoinhas,3.1056,-12.0843,-38.3436
BRA,Cervejatia Petrópolis - Itapissuma,3.1056,-7.7943,-34.9166
BRA,Cerâmica Urussanga,2.448,-28.5308,-49.3094
BRA,Cerâmicos Fortaleza,1.92,-22.407,-47.5515
BRA,Cesar Filho,7.0,-12.2698,-61.1862
BRA,Cesar Park Business Hotel/Globenergy,2.1,-23.459,-46.5235
BRA,Cevasa,54.0,-20.7478,-47.4218
BRA,Chaminé,18.0,-25.8153,-49.0606
BRA,Chapadão Agroenergia,92.0,-21.1994,-50.1965
BRA,Chavantes,414.0,-23.1286,-49.7314
BRA,Chibarro,2.6,-21.8881,-48.1472
BRA,Chris Cintos,4.0,-23.6461,-46.6386
BRA,Chupinguaia,5.41,-12.5333,-60.8889
BRA,Chupinguaia,1.27,-12.5694,-60.8928
BRA,Chuí 09,17.900000000000002,-33.6875,-53.381
BRA,Chuí I,24.0,-33.6565,-53.3936
BRA,Chuí II,22.0,-33.6594,-53.4003
BRA,Chuí IV,22.0,-33.6647,-53.4164
BRA,Chuí V,30.0,-33.6681,-53.4218
BRA,Cia Minuano,1.016,-29.3584,-51.9556
BRA,Cia de Alimentos Ibituruna,2.0,-18.7794,-41.9541
BRA,Cidade Nova,15.6,-3.0241,-59.9592
BRA,Cidezal,17.0,-13.37,-59.0126
BRA,Citrosuco,7.0,-21.5947,-48.3636
BRA,Citrosuco,2.3000000000000003,-22.5945,-47.3542
BRA,Citrovita Catanduva,19.824,-21.134,-48.9635
BRA,Clealco Clementina,11.2,-21.578,-50.4216
BRA,Clealco Queiroz,45.0,-21.8503,-50.2472
BRA,Coaracy Nunes,76.952,0.9031,-51.2592
BRA,Cocais Grande,10.0,-19.5319,-42.7672
BRA,Cocal,28.2,-22.47,-50.7793
BRA,Cocal II,131.3,-22.5268,-51.494
BRA,Cocamar Maringá,13.0,-23.4303,-51.9774
BRA,Codajás,3.656,-3.8366,-62.053
BRA,Codora,48.0,-15.2714,-49.158
BRA,Codorna,1.944,-20.1517,-43.8842
BRA,Coelhos I,4.8,-6.5758,-34.9718
BRA,Coelhos II,4.8,-6.5701,-34.9674
BRA,Coelhos III,4.8,-6.5566,-34.9664
BRA,Coelhos IV,4.8,-6.5814,-34.9747
BRA,Cofercatu,4.0,-22.8892,-51.3931
BRA,Cogeracao Diesel - Cargilll de Castro Pr,1.80115,-24.7758,-49.8856
BRA,Cogeração De Millus Av. Brasil,3.69926,-22.9192,-43.4408
BRA,Cogeração International Paper - Fases I e II,50.5,-22.3563,-46.9605
BRA,Coinbra - Frutesp,5.0,-20.9295,-48.5072
BRA,Coinbra - Frutesp,8.0,-21.6335,-48.3421
BRA,Colino 1,11.0,-17.0778,-40.0853
BRA,Colino 2,16.0,-17.0725,-40.1047
BRA,Colombo Ariranha,105.5,-21.2116,-48.8296
BRA,Colombo Ariranha 2,40.0,-21.2118,-48.828
BRA,Colombo Palestina,15.0,-20.3107,-49.5898
BRA,Colombo Santa Albertina,50.0,-20.0361,-50.6662
BRA,Color Visão do Brasil Indústria Acrílica,2.4,-21.2305,-50.5078
BRA,Colorado,52.76,-20.2792,-48.1755
BRA,Colorado,1.12,-28.6428,-52.9269
BRA,Colorado do Oeste,10.946,-13.1149,-60.5186
BRA,Colônia,18.9,-3.5422,-38.8784
BRA,Combustol,2.1750000000000003,-23.4864,-46.7439
BRA,Comendador Venâncio,1.6,-21.1667,-42.0833
BRA,Comigo,5.0,-15.4212,-49.7344
BRA,Companhia Brasileira de Vidros Planos,4.5360000000000005,-7.5084,-34.9747
BRA,Companhia Maranhense de Refrigerantes - Varzea Grande,4.0,-15.6103,-56.1544
BRA,Complem,1.246,-17.6875,-49.1329
BRA,Component,1.62,-23.682,-46.6135
BRA,Comvap,8.8,-4.8503,-42.8765
BRA,Condominio Edificio Faria Lima Financial Center,1.8016,-23.5822,-46.6736
BRA,Condominio de Administraçao do Goiania Shopping,3.64,-16.7083,-49.2725
BRA,Condomínio Canoas Shopping Center,1.334,-29.914,-51.1745
BRA,Condomínio Civil Pantanal Shopping,3.36,-15.592,-56.0875
BRA,Condomínio Edifício Nova São Paulo,1.416,-23.6288,-46.7015
BRA,Condomínio Edifícios New York e Los Angeles,2.0,-23.6461,-46.6386
BRA,Condomínio Edilício Pátio Belém,1.28,-1.4558,-48.5044
BRA,Condomínio SP Market Center,4.0,-23.674,-46.688
BRA,Condomínio Shopping Center Lapa,1.92,-12.967,-38.5015
BRA,Condomínio World Trade Center,5.25,-23.6032,-46.6874
BRA,Condomínio do Castanheira Shopping Center,2.56,-1.3624,-48.3628
BRA,Congonhal I,1.616,-22.1128,-44.8422
BRA,Conquista de Minas,3.6,-20.0167,-47.6159
BRA,Conquista do Pontal,110.0,-22.1202,-51.7568
BRA,Conselvan,1.0,-9.9266,-59.9203
BRA,Consórcio Condomínio Catarina Fashion Outlet,2.4,-23.4166,-47.1528
BRA,Contagem,19.299,-19.9432,-44.0061
BRA,Contestado,5.6000000000000005,-26.6733,-51.7169
BRA,Continental,8.0,-20.1818,-48.6887
BRA,Coocarol,4.0,-23.3652,-52.7003
BRA,Cooper-Rubi,2.4,-15.1754,-49.7488
BRA,CooperSul,1.44,-31.7595,-52.474
BRA,Cooperfrigo,4.0,-21.5208,-49.8611
BRA,Coopernavi,12.0,-23.126,-54.1924
BRA,Cooperval,3.6,-23.6819,-51.6831
BRA,Copa DOr,1.6,-22.899,-43.1985
BRA,Copebrás Catalão,14.8,-18.166,-47.9325
BRA,Copesul,74.4,-29.939,-51.7085
BRA,Coplasa,10.0,-21.0286,-49.9184
BRA,Coprodia,6.0,-13.781,-57.8406
BRA,Coqueiral,3.164,-27.5158,-49.0781
BRA,Coqueirinho,29.6,-14.4199,-42.6287
BRA,Coqueiros,27.0,-2.8855,-39.9721
BRA,Coraci,1.384,-22.6751,-49.7627
BRA,Corfio,1.48,-26.7716,-51.0058
BRA,Corona,18.0,-21.4163,-48.2793
BRA,Coronel Araújo,5.8,-26.6725,-51.7525
BRA,Corredor do Senandes II,21.6,-32.3862,-52.327
BRA,Corredor do Senandes III,27.0,-32.4127,-52.3555
BRA,Corredor do Senandes IV,29.7,-32.3689,-52.342
BRA,Corrente Grande,14.0,-18.95,-42.5167
BRA,Corrente Grande,1.25,-18.89,-42.724
BRA,Corrupião,27.75,-14.2927,-42.5853
BRA,Corumbataí,1.7,-22.4833,-47.6
BRA,Corumbá I,375.3,-17.9893,-48.531
BRA,Corumbá III,96.447,-16.7861,-47.9419
BRA,Corumbá IV,127.0,-16.3208,-48.1883
BRA,Coruripe,16.0,-9.9783,-36.2156
BRA,Coruripe Energética - Filial Campo Florido,30.0,-19.8089,-48.7295
BRA,Coruripe Iturama,24.0,-19.7046,-50.3289
BRA,Cory,1.44,-21.36,-46.9305
BRA,Cosima,4.9,-3.6875,-45.428
BRA,Cosipa II,18.5,-23.8608,-46.3623
BRA,Cosipar,14.0,-5.365,-49.1085
BRA,Costa Bioenergia,15.0,-23.6592,-53.3994
BRA,Costa Branca,20.7,-5.4215,-35.8526
BRA,Costa Pinto,75.0,-22.6357,-47.6749
BRA,Costa Rica,16.0,-18.5667,-53.1333
BRA,Cotiporã,19.5,-28.9666,-51.75
BRA,Cotovelo do Jacuí,3.34,-28.6714,-52.7086
BRA,Coxilha Seca,30.0,-30.888,-55.7352
BRA,Crato,13.12,-7.2324,-39.478
BRA,Cristalina Alimentos,1.92,-16.6947,-47.5085
BRA,Cristalino,4.0,-24.5633,-51.5533
BRA,Cristina,3.8,-22.1578,-45.2806
BRA,Criúva,23.949,-28.9808,-50.7825
BRA,Cromex - BA,1.296,-12.8236,-38.4245
BRA,Cruz Alta,30.0,-26.5994,-51.7255
BRA,Cruzeiro do Sul,24.210400000000003,-7.6116,-72.665
BRA,Cruzeiro do Sul  CEA,33.12,-7.6308,-72.67
BRA,Cucaú,12.6,-8.6369,-35.2617
BRA,Cuiabá (Antga Mário Covas),529.2,-15.596,-56.097
BRA,Culuene,1.794,-14.6333,-53.9333
BRA,Curemas,3.52,-7.0167,-37.9667
BRA,Curuá-Una,30.3,-2.8117,-54.2989
BRA,Córrego Santa Cruz,1.0,-12.6456,-58.3189
BRA,D,1.36,-20.1169,-43.8681
BRA,DHB Componentes Automotivos (Unidade 1),1.016,-30.0914,-51.1556
BRA,DHB Componentes Automotivos (Unidade 2),2.032,-30.0914,-51.1556
BRA,DTCEA-MN,1.0,-3.1423,-59.9705
BRA,DVPA,28.0,-17.1171,-46.6541
BRA,Da Fazenda,27.0,-10.3303,-56.9814
BRA,Da Ilha,26.0,-28.8833,-51.45
BRA,Da Mata,40.0,-21.3255,-50.9456
BRA,Da Pedra,70.0,-21.1706,-47.6205
BRA,Da Prata,21.84,-13.9643,-42.6389
BRA,Dacal,4.4,-21.9106,-50.856
BRA,Dacalda,6.0,-23.1569,-50.0936
BRA,Daia,44.44,-16.398,-48.9344
BRA,Dakota Calçados,1.095,-10.7343,-37.8016
BRA,Dalapria,1.44,-26.7961,-52.1367
BRA,Dalba,1.0,-25.2817,-51.877
BRA,Damascena,30.0,-11.8567,-41.4742
BRA,Dardanelos,261.0,-10.1633,-59.4642
BRA,Dasa,4.2,-17.8335,-40.1786
BRA,Decasa,33.0,-22.7623,-50.1025
BRA,Della Coletta,4.0,-22.0536,-48.7021
BRA,Delta,101.875,-19.9716,-47.7589
BRA,Delta do Parnaíba,30.0,-2.8318,-41.7136
BRA,Derivação do Rio Jordão,6.5,-25.7589,-52.0869
BRA,Destil,3.4,-21.2515,-49.1283
BRA,Destilaria Guaricanga,1.6,-22.0541,-49.3107
BRA,Destilaria Malosso,4.0,-21.6237,-48.821
BRA,Destilaria Melhoramentos,18.38,-23.5612,-52.4182
BRA,Destilaria Paraguaçu,3.6,-22.4618,-50.4825
BRA,Destilaria Porto Alegre,2.4,-8.8935,-35.6571
BRA,Destilaria de Álcool Ibaiti,3.6,-23.6782,-50.4048
BRA,Destivale,5.0,-21.114,-50.4543
BRA,Diacal II,5.04,-11.7403,-46.7525
BRA,Diamante,7.0,-22.3657,-48.6834
BRA,Diamante (Antiga Camargo Corrêa),4.23,-14.3464,-56.7947
BRA,Diana,2.873,-21.3973,-49.884
BRA,Dianópolis,5.5,-11.4661,-46.8189
BRA,Distribuidora Amaral,1.5,-20.1197,-44.9212
BRA,Distrito - Bloco Soenergy,21.32,2.7617,-60.7247
BRA,Divino,1.251,-20.6994,-42.075
BRA,Divisa,10.8,-13.3631,-59.1419
BRA,Do Atlântico,490.0,-22.9096,-43.7297
BRA,Doce Mineiro,2.24,-18.7541,-49.2632
BRA,Doido,6.0,-11.7098,-46.7563
BRA,Dois Córregos,3.6,-22.3348,-48.3971
BRA,Dois Riachos,30.0,-11.8225,-41.4591
BRA,Dois Vizinhos,1.98,-25.73,-53.0475
BRA,Dona Francisca,125.0,-29.4496,-53.2857
BRA,Dona Maria Piana,1.0,-29.2,-51.25
BRA,Dori Alimentos,3.75,-22.1743,-49.9736
BRA,Dos Araçás,31.86,-14.1296,-42.5597
BRA,Dourados,10.8,-20.65,-47.6833
BRA,Dourados,28.56,-14.1523,-42.6816
BRA,Dreen Boa Vista,14.0,-5.1106,-35.9279
BRA,Dreen Olho D Água,30.0,-5.0545,-35.9687
BRA,Dreen São Bento do Norte,30.0,-5.053,-35.9784
BRA,Dulcini,1.8512,-22.6107,-46.9245
BRA,Dunas de Paracuru,42.0,-3.4367,-38.9854
BRA,Durandé,3.0,-20.0797,-41.7336
BRA,E,1.4,-20.1167,-43.8858
BRA,E Nova,2.744,-20.1258,-43.9502
BRA,EMPRESA DE MINERAÇÃO ESPERANÇA S A - EMESA,3.12,-20.117,-44.2141
BRA,ENGEFLEX BAHIA,3.648,-14.8621,-40.83
BRA,ERB Candeias,16.79,-12.763,-38.4718
BRA,ESPIGÃO I,3.5872,-2.5896,-43.1995
BRA,ETA006,1.12,-10.2875,-48.2956
BRA,ETERNIT RIO DE JANEIRO,1.524,-22.8349,-43.3605
BRA,Ecoluz,12.33,-25.3893,-51.4458
BRA,Edifício Odebrecht,1.3,-23.5678,-46.6939
BRA,Edifício Rochaverá,5.47,-23.544,-46.6265
BRA,Edifício Sky,1.3,-23.6461,-46.6386
BRA,Editora o Dia,3.3000000000000003,-22.899,-43.1985
BRA,Egídio,2.0,-10.314,-58.3495
BRA,Eirunepé,6.33,-6.6566,-69.8666
BRA,Eldorado,141.019,-21.8514,-54.0159
BRA,Eldorado Brasil,226.0,-20.5957,-51.5975
BRA,Electron (TG),120.0,-3.121,-59.9186
BRA,Elekeiroz,8.988,-23.2038,-46.8144
BRA,Elektro 4UGs,1.656,-22.9927,-47.0976
BRA,Eloy Chaves,19.0,-22.7,-47.2833
BRA,Ematex,1.247,-19.7756,-44.0626
BRA,Embaúba,4.5,-15.9825,-55.0828
BRA,Emborcação,1192.0,-18.4519,-47.9859
BRA,Embuaca,27.3,-3.2147,-39.3288
BRA,Emiliana,28.2,-13.91,-42.6242
BRA,Enacel,31.5,-4.5099,-37.7607
BRA,Energia Madeiras,4.0,-26.1852,-50.3597
BRA,Energy Green,5.0,-24.9522,-50.1
BRA,Energy Works Kaiser Pacatuba,5.5520000000000005,-3.98,-38.6105
BRA,EnergyWorks Corn Products Balsa,9.199,-25.58,-49.6265
BRA,EnergyWorks Corn Products Mogi,30.775,-22.368,-46.9325
BRA,Energética Itajubara,4.4,-4.2788,-42.9783
BRA,Energética Santa Helena,3.2,-21.9943,-53.4155
BRA,Enervale,30.0,-17.0598,-46.1705
BRA,Engenheiro Ernesto Jorge Dreher,17.87,-29.1203,-53.3678
BRA,Engenheiro Henrique Kotzian,13.0,-29.1306,-53.3156
BRA,Engenheiro José Gelásio da Rocha,24.435,-16.7,-54.76
BRA,Engenheiro José Luiz Muller de Godoy Pereira (Antiga Foz do Rio Claro),68.4,-19.1178,-50.6456
BRA,Engenho Coradini,1.2,-30.9735,-54.6353
BRA,Enguia Pecém,14.76,-3.598,-39.0477
BRA,Envira,3.38,-7.4368,-70.0203
BRA,Equipav,58.4,-21.5208,-49.8611
BRA,Equipav II,80.0,-21.5208,-49.8611
BRA,Ernestina,4.8,-28.5558,-52.5456
BRA,Ernesto Lavratti Neto,1.0,-26.5531,-52.3272
BRA,Esdeva,2.545,-21.7602,-43.3408
BRA,Esmeralda,22.2,-27.7833,-51.3667
BRA,Esmeril,5.04,-20.8333,-47.3
BRA,Esperança,2.4,-13.7786,-59.7889
BRA,Espigão,2.3000000000000003,-11.4797,-60.7469
BRA,Espigão,10.08,-14.477,-42.5853
BRA,Espirito Santo,1.44,-19.9196,-43.9289
BRA,Espora,32.01,-18.6758,-51.8656
BRA,Espraiado,1.25,-22.35,-46.225
BRA,Ester,46.4,-22.6533,-47.2014
BRA,Estivas,17.0,-6.2266,-35.198
BRA,Estreito,1087.0,-6.5872,-47.4594
BRA,Estreito (Luiz Carlos Barreto de Carvalho),1048.0,-20.1506,-47.2794
BRA,Estrela,29.7,-3.248,-39.2943
BRA,Eternit,2.96,-25.2877,-49.2147
BRA,Eternit Simões Filho,1.44,-12.7805,-38.3944
BRA,Euclidelândia,1.4,-21.9166,-42.2549
BRA,Euclides da Cunha,108.8,-21.6031,-46.9492
BRA,Eurus I,30.0,-5.3651,-35.8619
BRA,Eurus II,30.0,-5.3919,-35.8331
BRA,Eurus III,30.0,-5.3973,-35.8749
BRA,Eurus IV,27.0,-5.2622,-35.8145
BRA,Eurus VI,8.0,-5.2329,-35.9318
BRA,Euzébio Rocha (Antiga Cubatão - CCBS),249.9,-23.9293,-46.4239
BRA,Evo,1.0,-24.474,-51.7922
BRA,Extra Aracaju,1.408,-10.9071,-37.0622
BRA,Extra Caraguatatuba,2.72,-23.6163,-45.4036
BRA,Extra São José dos Campos,1.44,-23.1755,-45.8775
BRA,Eólica Canoa Quebrada,10.5,-4.5358,-37.6953
BRA,Eólica Icaraizinho,54.6,-3.0179,-39.6741
BRA,Eólica Paracuru,25.2,-3.4315,-38.962
BRA,Eólica Praias de Parajuru,28.804,-4.3631,-37.8839
BRA,Eólica de Prainha,10.0,-3.8708,-38.3803
BRA,Eólica de Taíba,5.0,-3.4953,-38.9339
BRA,Eólica Água Doce,9.0,-26.5839,-51.6876
BRA,Eólio - Elétrica de Palmas,2.5,-26.5781,-51.7004
BRA,F,3.792,-20.1169,-43.8681
BRA,F PIO - LOJAS VISÃO BELÉM,1.524,-1.4575,-48.4944
BRA,FBA,4.44,-23.3516,-47.8475
BRA,FERROUS RESOURCES DO BRASIL S A,3.0,-20.5032,-43.9168
BRA,FIRMENICH 1,1.44,-23.5985,-46.908
BRA,FIRMENICH 2,1.32,-23.5999,-46.9097
BRA,FNS-PO,1.7978,-27.595,-48.5486
BRA,FORTALEZA - 2,1.8,-3.7489,-38.4539
BRA,Fagundes,4.8,-22.2042,-43.0931
BRA,Fany,1.2,-22.3051,-51.2115
BRA,Faria Lemos,1.224,-20.7942,-42.0
BRA,Faria Lima Square,1.44,-23.5839,-46.6728
BRA,Farias,1.35,-19.067,-42.8092
BRA,Farol,20.0,-5.097,-36.0204
BRA,Faxinal II,30.0,-10.1622,-59.4578
BRA,Faxinal dos Guedes,4.0,-26.7636,-52.2183
BRA,Faxinal l,2.7880000000000003,-10.1648,-59.4466
BRA,Fazenda Rosário,9.2,-30.4469,-50.3888
BRA,Fazenda Rosário 2,23.0,-30.4398,-50.4053
BRA,Fazenda Rosário 3,16.1,-30.4525,-50.4226
BRA,Fazenda Velha,16.5,-17.968,-51.7613
BRA,Faísa I,29.4,-3.3218,-39.2671
BRA,Faísa II,27.3,-3.3188,-39.2396
BRA,Faísa III,25.2,-3.3478,-39.2652
BRA,Faísa IV,25.2,-3.3221,-39.2671
BRA,Faísa V,29.4,-3.3699,-39.2621
BRA,Feijó,4.8864,-8.1713,-70.3496
BRA,Feijó  CEA,5.875,-8.1639,-70.3539
BRA,Feixos,1.3,-22.6975,-46.8512
BRA,Fernando Gasparian (Antiga Nova Piratininga),386.08,-23.6949,-46.6691
BRA,Ferradura,9.2,-27.5594,-53.5767
BRA,Ferrari,80.5,-21.8411,-47.3514
BRA,Ferreira Gomes,252.0,0.852,-51.2
BRA,Fibrasa,1.44,-7.9077,-34.8933
BRA,Fibrasa Embalagens,1.1,-20.1246,-40.2983
BRA,Fibrasa Nordeste,1.92,-7.9077,-34.8933
BRA,Fibria - MS (Antiga VCP - MS),163.20000000000002,-20.751,-51.678
BRA,Figueira,20.0,-23.8482,-50.3808
BRA,Figueira Indústria e Comércio,4.4,-21.111,-50.2236
BRA,Figueirópolis,19.41,-15.3926,-58.6378
BRA,Fischer,5.0,-22.5136,-47.3723
BRA,Fleixeiras I,30.004,-3.2011,-39.3647
BRA,Flor do Mato,4.8,-26.8481,-51.8794
BRA,Flor do Sertão,16.5,-26.7877,-53.3942
BRA,Floraplac,1.25,-3.1995,-47.5937
BRA,Flores,80.0,-3.0707,-60.0144
BRA,Flórida Clean Power do Amapá,1.7,0.0408,-51.1351
BRA,Fonte Boa,5.12,-2.5202,-66.0291
BRA,Fontes I+II,10.0,-9.055,-38.12
BRA,Fontes Nova,130.3,-22.7031,-43.8814
BRA,Forquilha,1.0,-27.6667,-51.7333
BRA,Fortaleza,326.601,-3.6771,-38.8566
BRA,Fortlev Sul,2.2,-26.4579,-48.7487
BRA,Foz do Chapecó,855.0,-27.1417,-53.0397
BRA,Foz do Rio Choró,25.2,-4.1256,-38.1503
BRA,Franca Amaral,4.5,-21.0537,-41.72
BRA,Francisco Gross (Antiga Santa Fé),29.0,-20.7,-41.5167
BRA,Frango Sertanejo,4.944,-20.791,-49.2105
BRA,França,29.52,-23.9406,-47.1944
BRA,Frascal,2.2,-26.9564,-50.4889
BRA,Frederico João Cerutti SA,1.2,-27.5103,-53.4253
BRA,Frigobet,1.56,-19.9437,-44.1898
BRA,Fronteira,2.6,-20.2996,-49.1965
BRA,Frutal,16.092,-20.0803,-48.8124
BRA,Fruteiras,8.736,-20.7022,-41.0894
BRA,Fuga Couros,1.296,-28.4452,-52.1905
BRA,Fuga Couros - Camargo,1.016,-28.6124,-52.2118
BRA,Fumaça,36.4,-24.0075,-47.2639
BRA,Fumaça,10.0,-20.45,-43.2667
BRA,Fumaça IV,4.5,-20.7492,-41.8761
BRA,Fundão,120.168,-25.7086,-51.9981
BRA,Fundão I,2.475,-25.7086,-51.9981
BRA,Funfarme,1.609,-20.8157,-49.37
BRA,Funil,216.0,-22.5303,-44.5669
BRA,Funil,3.6,-20.4967,-43.4722
BRA,Funil,22.5,-19.0833,-42.85
BRA,Funil,180.0,-21.1436,-45.0372
BRA,Funil,30.0,-14.1833,-39.4667
BRA,Furlan,3.6,-22.7576,-47.4689
BRA,Furlan Avaré,30.0,-23.0459,-49.0334
BRA,Furnas,1216.0,-20.6471,-46.3286
BRA,Furnas do Segredo,9.8,-29.3653,-54.5039
BRA,Furquim,6.0,-20.3667,-43.2033
BRA,Fábrica de Ideias Indústria e Comércio,1.016,-23.6449,-46.8428
BRA,G,1.44,-20.1364,-43.8717
BRA,GB Silvio Teixeira,1.08,-10.938,-37.0493
BRA,GE Celma,1.063,-22.501,-43.1695
BRA,GNA-RD,1.2,-16.7193,-49.2547
BRA,GPA - Loja1370,1.408,-23.9582,-46.3703
BRA,GPA - Loja1382,1.08,-23.5263,-47.4544
BRA,GRAFITE ITAPECERICA,2.1888,-20.4685,-45.1161
BRA,GTBX-ST-RJO,3.0,-22.9981,-43.6061
BRA,Gabriel Passos,9.22,-19.9105,-44.1889
BRA,Galheiros I,12.06,-13.3934,-46.3906
BRA,Galpões,8.0,-30.8807,-55.6765
BRA,Galvani,11.5,-22.7444,-47.1356
BRA,Galvani,5.0,-12.8694,-38.5052
BRA,Galópolis,1.5,-29.2501,-51.1676
BRA,Gameleira,2.032,-10.6505,-51.4092
BRA,Garganta da Jararaca,29.3,-13.3906,-57.6242
BRA,Gargaú,28.05,-21.5657,-41.0731
BRA,Garibaldi,191.9,-27.6217,-50.9882
BRA,Gasa,78.0,-20.7659,-51.2492
BRA,Gavião Peixoto,4.8,-21.85,-48.5167
BRA,Gedore,2.2,-29.7563,-51.1378
BRA,Generalco,3.8,-20.5711,-50.3749
BRA,Geolab,3.36,-16.4028,-48.9282
BRA,Geraldiscos,1.456,-23.4402,-46.9083
BRA,Geramar I (Antiga Tocantinópolis),165.87,-3.5274,-44.5174
BRA,Geramar II (Antiga Nova Olinda),165.87,-3.5274,-44.5174
BRA,Geração Diesel Irmãos Hort,2.64,-27.1107,-48.9364
BRA,Geração Própria de Energia Elétrica - GPEE,6.0,-22.9192,-43.4408
BRA,Giasa II,30.0,-7.3481,-35.0174
BRA,Gindaí,4.5,-8.6361,-35.2036
BRA,Girassol,1.0,-13.9969,-45.403
BRA,Global I,148.8,-12.6668,-38.5311
BRA,Global II,148.8,-12.6668,-38.5311
BRA,Globo,5.16,-22.782,-43.3025
BRA,Glória,11.36,-21.0358,-42.3317
BRA,Glória,1.0,-16.0311,-55.3611
BRA,Goiandira,27.0,-18.2167,-48.25
BRA,Goianésia,7.3,-15.2112,-49.0874
BRA,Goiasa,46.52,-18.0668,-49.6613
BRA,Gonçalves Salles,1.12,-20.913,-46.9819
BRA,Governador Bento Munhoz da Rocha Neto (Foz do Areia),1676.0,-26.0833,-51.65
BRA,Governador Jayme Canet Júnior - GJC (Antiga Mauá),363.138,-24.0622,-50.7064
BRA,Governador José Richa (Salto Caxias),1240.0,-25.5431,-53.4981
BRA,Governador Leonel Brizola (Antiga TermoRio),1058.3,-22.7096,-43.2458
BRA,Governador Ney Aminthas de Barros Braga (Segredo),1260.0,-25.7833,-52.1333
BRA,Governador Pedro Viriato Parigot de Souza (Capivari/Cachoeira),260.0,-25.1386,-48.8738
BRA,Grafite Pedra Azul,3.624,-16.0013,-41.2878
BRA,Grafite Salto da Divisa,2.1888,-15.9988,-39.9375
BRA,Granja Brasília,1.92,-19.9638,-44.1889
BRA,Granja Viana,1.32,-23.6712,-46.951
BRA,Gravatá Fruitrade,4.95,-8.2682,-35.5964
BRA,Graça Brennand (Antiga Terra Santa),27.4,-14.793,-57.9672
BRA,Greif,1.28,-23.544,-46.6265
BRA,Grizzo,1.968,-22.2347,-48.4633
BRA,Grupo Geradores Moore,1.296,-23.529,-46.7825
BRA,Guaimbe,150.0,-21.91,-49.85
BRA,Guajirú,30.004,-3.2632,-39.2159
BRA,Guanambi,20.8,-14.2017,-42.6183
BRA,Guaporé,124.2,-15.1239,-58.9647
BRA,Guarani,9.4,-20.8171,-48.8132
BRA,Guarani - Tanabi,38.0,-20.5032,-49.5514
BRA,Guarani Tanabi 2,34.0,-20.4818,-49.5282
BRA,Guariba,1.448,-9.2585,-60.3055
BRA,Guaricana,36.0,-25.7148,-48.9745
BRA,Guariroba,12.0,-20.1098,-49.7508
BRA,Guarita,1.76,-27.767,-53.56
BRA,Guary,5.4,-21.4914,-43.4544
BRA,Guatapará,5.704,-21.3922,-47.9528
BRA,Guaxuma,14.312,-10.0817,-36.2231
BRA,Guaçu,30.0,-10.1811,-57.4505
BRA,Guaíra Energética,55.0,-20.4184,-48.2114
BRA,Guilman Amorim,140.04,-19.7083,-42.96
BRA,Guimarania 1,30.0,-18.88,-46.74
BRA,Guimarania 2,30.0,-18.88,-46.74
BRA,Guirapá,28.8,-14.2189,-42.6414
BRA,Gusa Nordeste,10.0,-4.8888,-47.3775
BRA,Gás Anamã,3.3000000000000003,-3.5761,-61.395
BRA,Gás Anori,3.3000000000000003,-8.3377,-67.3088
BRA,Gás Caapiranga,2.2,-3.3243,-61.2
BRA,HORIZONTE TÊXTIL,2.748,-19.9168,-43.9283
BRA,HOUSTON BIKE,1.08,-5.1485,-42.7847
BRA,Henry Borden,889.0,-23.8753,-46.4486
BRA,Heringer,6.0,-25.5226,-48.5081
BRA,Hermasa,7.59,-3.1301,-58.473
BRA,Herval,1.44,-29.5,-50.8333
BRA,Hiper Bompreço Rotula,1.23,-12.8694,-38.5052
BRA,Hiperideal,1.08,-15.592,-56.0875
BRA,Horizonte,80.0,-12.705,-43.99
BRA,Hospital Mater Dei - Contorno I,2.4,-19.9226,-43.9484
BRA,Hospital Mater Dei - Contorno II,2.4,-19.9266,-43.9579
BRA,Hospital Santa Helena,1.0176,-23.6599,-46.5289
BRA,Hospital São Luiz,2.24,-23.6599,-46.5289
BRA,Hospital São Vicente de Paulo,1.68,-28.256,-52.403
BRA,Hudtelfa I,2.0,-22.774,-47.2865
BRA,Hy-Line,1.172,-20.53,-49.3045
BRA,Hypermarcas,3.4090000000000003,-22.9458,-43.3636
BRA,IGW/Service Energy,2.825,-23.544,-46.6265
BRA,INPLASUL,3.624,-26.2425,-52.6916
BRA,ITALSPEED CAÇAPAVA,1.3648,-23.1071,-45.6764
BRA,ITALSPEED SABARÁ,2.756,-23.6682,-46.6772
BRA,IUNI EDUCACIONAL - UNIC BEIRA RIO,2.512,-15.6248,-56.0868
BRA,Iacanga,57.0,-21.7932,-49.0027
BRA,Iaco Agrícola,64.0,-18.7921,-52.8859
BRA,Ibirama,21.0,-27.0372,-49.5708
BRA,Ibirapuitã I,25.2,-30.7709,-55.6629
BRA,Ibitinga,131.49,-21.7592,-48.9906
BRA,Ibitiúva Bioenergética (Antiga Destilaria Andrade),33.0,-21.0013,-48.2761
BRA,Ibéria,6.5200000000000005,-22.1616,-50.4744
BRA,Icaraí,16.8,-3.0274,-39.6209
BRA,Icaraí I,27.3,-3.0812,-39.5949
BRA,Icaraí II,37.8,-3.066,-39.5969
BRA,Igaporã,30.4,-13.8606,-42.6573
BRA,Igarapava,210.0,-19.9833,-47.75
BRA,Igarapé,131.0,-19.948,-44.3335
BRA,Iguatemi (Antiga Santa Terezinha - Iguatemi),3.4,-23.3953,-52.0839
BRA,Iguatemi Bahia,8.316,-12.896,-38.2905
BRA,Iguatemi Fortaleza,4.7940000000000005,-3.713,-38.5335
BRA,Iguatu,14.76,-6.3555,-39.2891
BRA,Ijuizinho,3.6,-28.365,-54.3743
BRA,Ijuizinho,1.0,-28.443,-54.2889
BRA,Ilha Comprida,20.16,-13.1975,-58.9839
BRA,Ilha Grande,29.7,-3.0666,-39.7026
BRA,Ilha Solteira,3444.0,-20.3822,-51.3636
BRA,Ilha da Luz,3.8,-20.8342,-41.1225
BRA,Ilha dos Pombos,187.169,-21.85,-42.5833
BRA,Ilhéus,11.2,-13.8823,-42.663
BRA,Imcopa,7.0,-25.5628,-49.3473
BRA,Indaiazinho  (Antiga Indaiazinho Grande),12.5,-19.2008,-52.3542
BRA,Indaiá Grande,19.998,-19.2836,-52.3983
BRA,Indiavaí,28.0,-15.255,-58.7164
BRA,Indústria Agropalma,2.7104000000000004,-2.9039,-48.7272
BRA,Indústria Palmares,1.64,-2.0315,-48.4021
BRA,Indústria de Cal Cruzeiro,1.68,-20.4468,-45.5227
BRA,Indústria de Feltros Santa Fé,2.0,-23.4205,-46.2233
BRA,Inhambu,31.45,-14.3912,-42.5939
BRA,Inhapim,6.0,-19.5317,-42.1231
BRA,Inject Campo Bom,1.296,-29.6749,-51.0439
BRA,Interlagos,40.0,-20.5265,-51.2345
BRA,Inxú,20.6,-13.3669,-57.6175
BRA,Iolando Leite,8.0,-10.5586,-37.0292
BRA,Ipatinga,40.0,-19.464,-42.5275
BRA,Ipaussu Bioenergia,76.0,-23.0957,-49.5836
BRA,Ipiranga - Mococa,4.2,-21.3441,-47.1555
BRA,Ipiranga Filial Descalvado,3.025,-21.8278,-47.741
BRA,Ipixuna,2.68,-7.0507,-71.6819
BRA,Ipojuca,11.2,-8.3892,-35.0821
BRA,Ipê (Antiga Ceni),25.0,-21.1004,-51.4821
BRA,Iracema,14.0,-22.5824,-47.5216
BRA,Irani,9.8,-26.9293,-51.7905
BRA,Irapé,399.0,-16.7381,-42.5747
BRA,Irara,30.0,-18.0833,-51.1667
BRA,Isamu Ikeda,29.064,-10.7008,-47.7939
BRA,Itaenga,47.0,-7.9058,-35.2847
BRA,Itaguassu Agro Industrial,4.4504,-10.851,-37.1165
BRA,Itaguaçu,14.0,-24.6933,-51.5192
BRA,Itaipava,3.88,-21.4167,-47.3333
BRA,Itaipu (Parte Brasileira),7000.0,-25.4269,-54.5931
BRA,Itaiquara,3.2,-21.4717,-46.7957
BRA,Itajaí Biogás,1.065,-26.983,-48.7111
BRA,Itamarati,37.5,-14.7542,-57.1856
BRA,Itaminas,3.2,-20.0552,-44.1116
BRA,Itapagipe,6.0,-19.8893,-49.6895
BRA,Itapebi,456.0,-15.9403,-39.5206
BRA,Itapicuru,1.44,-4.451,-43.8765
BRA,Itapiranga,4.1,-2.7449,-58.0125
BRA,Itarema I,27.0,-2.9225,-39.8407
BRA,Itarema II,27.0,-2.9211,-39.8617
BRA,Itarema III,15.0,-2.9476,-39.8369
BRA,Itarema IX,30.0,-2.9481,-39.9012
BRA,Itarema V,21.0,-2.9665,-39.8795
BRA,Itatinga,15.0,-23.7519,-46.1394
BRA,Itautinga,6.5600000000000005,-3.0863,-59.9058
BRA,Itaú Centro Empresarial Torre E6,10.0,-23.6462,-46.6386
BRA,Itaú Mooca,12.775,-23.544,-46.6265
BRA,Itaú Unibanco - Tatuapé,8.0,-23.5288,-46.5616
BRA,Itaúba,500.4,-29.2607,-53.2359
BRA,Itiquira (Casas de Forças  I e  II),156.0,-17.0906,-54.8307
BRA,Ituerê,4.04,-21.3,-43.2167
BRA,Ituiutaba,56.0,-19.0114,-49.6619
BRA,Itumbiara,2080.5,-18.4213,-49.116
BRA,Itumbiara,56.0,-18.369,-49.2605
BRA,Itupararanga,56.17,-23.6125,-47.3969
BRA,Itutinga,52.0,-21.2913,-44.6224
BRA,Ituverava,210.0,-12.594,-44.112
BRA,Itá,1450.0,-27.2767,-52.3822
BRA,Ivan Botelho I (Antiga Ponte),24.4,-21.4,-43.0167
BRA,Ivan Botelho II (Antiga Palestina),12.48,-21.35,-42.9667
BRA,Ivan Botelho III (Antiga Triunfo),24.4,-21.3,-42.9
BRA,J. L. G.,1.6,-21.5285,-48.3655
BRA,J. Pilon,3.8,-23.1575,-47.7737
BRA,JB,33.2,-8.2239,-35.2718
BRA,JBS Andradina,4.96,-20.8793,-51.3493
BRA,JBS GOIÂNIA,4.928,-16.6302,-49.3205
BRA,JF Pasqua,3.4210000000000003,-21.323,-46.733
BRA,Jacarepaguá,1.8248,-22.9558,-43.3783
BRA,Jacarezinho,4.6000000000000005,-23.0895,-49.9321
BRA,Jacareí,10.5,-23.301,-45.9565
BRA,Jacaré Pepira,2.0,-22.425,-48.02
BRA,Jaci-Paraná,3.7,-9.256,-64.3677
BRA,Jaciara,2.8000000000000003,-15.9222,-55.2163
BRA,Jacuí,180.0,-29.0735,-53.209
BRA,Jaguara,424.0,-20.0231,-47.4344
BRA,Jaguari,27.6,-23.195,-46.0278
BRA,Jaguari,11.8,-22.8167,-46.9
BRA,Jalles Machado,50.0,-15.2071,-48.9758
BRA,Jamari,20.0,-9.9537,-63.0917
BRA,Japungu,28.8,-6.9869,-35.0143
BRA,Jaraguá,1.6,-18.8894,-48.2485
BRA,Jaraqui,75.477,-2.9816,-60.0178
BRA,Jararaca,28.0,-28.9361,-51.4648
BRA,Jardim Sul Shopping,2.576,-23.6277,-46.7264
BRA,Jari Celulose,55.0,-0.9196,-52.4258
BRA,Jataí,105.0,-17.6918,-51.6155
BRA,Jataí,30.0,-17.8933,-51.7233
BRA,Jauru,121.5,-15.2356,-58.7278
BRA,Jesus Soares Pereira (Antiga Vale do Açú),322.967,-5.3785,-36.8091
BRA,Jirau,3750.0,-9.2664,-64.6478
BRA,Joana,28.2,-13.918,-42.6204
BRA,Jorda Flor,1.55,-23.8133,-47.6731
BRA,Jordão  BBF Acre,2.0442,-9.4342,-71.8839
BRA,Jorge Lacerda I e II,232.0,-28.441,-48.9485
BRA,Jorge Lacerda III,262.0,-28.441,-48.9485
BRA,Jorge Lacerda IV,363.0,-28.441,-48.9485
BRA,José Barasuol (Antiga Linha 3 Leste),14.335,-28.2931,-53.8742
BRA,José Bonifácio,19.0,-21.082,-49.912
BRA,João Baptista de Lima Figueiredo,3.5,-21.5828,-46.7467
BRA,João Borges,18.99,-27.7178,-50.6569
BRA,João Camilo Penna (Antiga Cachoeira do Emboque),22.02,-20.12,-42.3939
BRA,João Franco,1.0,-21.8344,-46.0919
BRA,João Neiva,3.5,-19.754,-40.3765
BRA,João de Deus,1.548,-19.6397,-45.1092
BRA,Juazeiro do Norte,14.76,-7.2094,-39.3061
BRA,Juba I,42.0,-14.7483,-58.0739
BRA,Juba II,42.0,-14.7561,-58.0231
BRA,Jucazinho,1.0,-8.006,-35.6969
BRA,Jucu,4.84,-20.3953,-40.5708
BRA,Juiz de Fora,87.048,-21.6855,-43.4475
BRA,Juliões,3.4,-20.4705,-44.2464
BRA,Junco Novo,1.2,-10.5573,-37.0301
BRA,Junqueira,7.2,-19.9841,-47.7887
BRA,Jupiá (Eng° Souza Dias),1551.2,-20.7758,-51.6267
BRA,Juremas,16.1,-5.3898,-35.8463
BRA,Juruena,3.82682,-10.3591,-58.5821
BRA,Jurumirim (Armando Avellanal Laydner),100.956,-23.2094,-49.23
BRA,Jurupará,7.2,-23.9622,-47.39
BRA,Juruá,1.998,-3.4699,-66.0575
BRA,Jutaí,4.54,-2.7382,-66.7589
BRA,Juína,2.648,-11.3033,-59.2236
BRA,Kaiser - Araraquara,1.6,-21.79,-48.1665
BRA,Kappesberg,1.44,-29.4724,-51.4116
BRA,Kiarroz,1.2,-28.6338,-49.2327
BRA,Klabin Celulose,330.0,-24.2436,-50.7414
BRA,Klabin Correia Pinto (Antiga Celucat),37.882,-27.5585,-50.303
BRA,LABORATÓRIOS B BRAUN,3.264,-22.8269,-43.0539
BRA,LDC Bioenergia Lagoa da Prata (Antiga Louis Dreyfus Lagoa da Prata),85.0,-20.0709,-45.5429
BRA,LDC Bioenergia Leme (Antiga Coinbra - Cresciumal),39.6,-22.1575,-47.2496
BRA,LDC Bioenergia Rio Brilhante (Antiga Louis Dreyfus Rio Brilhante),90.0,-21.5139,-54.7018
BRA,LEÃO LINHARES,1.6608,-19.3256,-40.0606
BRA,LONDRINA NORTE SHOPPING,2.5,-23.2821,-51.1416
BRA,LOOP,1.092,-22.5513,-47.3597
BRA,LUTEPEL INDÚSTRIA E COMÉRCIO DE PAPEL,3.2,-22.5956,-48.7869
BRA,Lafarge Brasil SA,1.44,-23.9101,-48.8623
BRA,Lageado,1.776,-9.8394,-48.2919
BRA,Lago Azul,2.0,-17.2536,-47.6785
BRA,Lago Azul,3.992,-17.2799,-47.5251
BRA,Lagoa Grande,25.6,-12.1525,-46.8177
BRA,Lagoa do Mato,3.23,-4.5891,-37.6377
BRA,Lajeado,8.838000000000001,-19.0572,-52.5308
BRA,Lajeado do Posto,1.0,-26.5439,-52.3694
BRA,Lajes,2.07,-6.7819,-48.1508
BRA,Lambedor,1.0008,-27.1456,-52.8392
BRA,Laminados Triunfo,1.5,-10.0085,-67.7578
BRA,Lanchinha,28.0,-6.1236,-36.7025
BRA,Lanxess Geração,3.6744,-23.2081,-47.5661
BRA,Laranjal do Jari,8.675,-0.8232,-52.5169
BRA,Laranjeiras,4.825,-7.6571,-35.3309
BRA,Latasa Santa Cruz,4.48,-22.899,-43.1985
BRA,Laticinios Bela Vista - Governador Valadares,2.24,-18.8588,-41.7966
BRA,Laticinios Bela Vista - Maravilha,3.36,-26.7746,-53.1925
BRA,Laticínio Scala,1.6,-19.8605,-47.4301
BRA,Lavenit Lavanderia,1.56,-22.8085,-42.958
BRA,Lavrinhas,30.0,-22.5667,-44.8631
BRA,Lençóis,1.68,-22.5167,-48.65
BRA,Levorin,4.11,-23.459,-46.5235
BRA,Licínio de Almeida,24.0,-14.1769,-42.6541
BRA,Limeira,1.26,-21.0142,-42.461
BRA,Limoeiro,1.25,-22.5781,-46.4194
BRA,Limoeiro (Armando Salles de Oliveira),32.0,-21.6253,-47.0094
BRA,Lindoia,1.5,-3.139,-58.4345
BRA,Linha Emília,19.5,-28.9333,-51.7667
BRA,Linha Granja Velha,1.0,-27.4275,-53.5408
BRA,Lobo,2.0,-22.1615,-47.9011
BRA,Londra,3.88,-23.5243,-48.9287
BRA,Louis Dreyfus Commodities Agroindustrial,4.0,-23.6461,-46.6386
BRA,Lubrasil,2.8000000000000003,-22.7213,-47.6397
